clues,cl_treatmentArm,cl_cov_movi,cl_cov_telcel,cl_cov_moviPct,cl_cov_telcelPct,cl_inst_clCat,cl_ent_clave_clCat,cl_ent_nombre_clCat,cl_jur_clave_clCat,cl_jur_nombre_clCat,cl_mun_clave_clCat,cl_mun_nombre_clCat,cl_loc_clave_clCat,cl_loc_nombre_clCat,cl_clase_nombre_clCat,cl_tipo_nombre_clCat,cl_nombre_clCat,cl_domicilio_clCat,cl_cp_clCat,cl_longitude,cl_latitude,cl_altitude
CSIMO000462,0,0,1,0,1,IMSS-PROSPERA,7,CHIAPAS,5,PICHUCALCO,13,BOCHIL,107,EL COPAL,UNIDAD DE CONSULTA EXTERNA,NO ESPECIFICADO,EL COPAL (BOCHIL),DOMICILIO CONOCIDO    ,29774,-92.92583333,16.96833333,1360
CSIMO000474,2,0,1,0,1,IMSS-PROSPERA,7,CHIAPAS,5,PICHUCALCO,14,EL BOSQUE,3,ÁLVARO OBREGÓN,UNIDAD DE CONSULTA EXTERNA,NO ESPECIFICADO,ÁLVARO OBREGÓN,DOMICILIO CONOCIDO    ,29843,-92.80694444,17.02805556,1400
CSIMO000503,0,0,1,0,1,IMSS-PROSPERA,7,CHIAPAS,5,PICHUCALCO,14,EL BOSQUE,58,SAN PEDRO NICHTALUCUM,UNIDAD DE CONSULTA EXTERNA,NO ESPECIFICADO,SAN PEDRO NICHTALUCUM,DOMICILIO CONOCIDO    ,29840,-92.72472222,17.03361111,940
CSIMO000841,0,0,1,0,0.985502362,IMSS-PROSPERA,7,CHIAPAS,4,VILLAFLORES,20,LA CONCORDIA,46,LA TIGRILLA,UNIDAD DE CONSULTA EXTERNA,NO ESPECIFICADO,LA TIGRILLA,DOMICILIO CONOCIDO    ,30362,-92.85111111,15.98666667,570
CSIMO001215,1,0,1,0,0.985751271,IMSS-PROSPERA,7,CHIAPAS,1,TUXTLA GUTIERREZ,29,CHICOASÉN,1,CHICOASÉN,UNIDAD DE CONSULTA EXTERNA,NO ESPECIFICADO,CHICOASÉN,DOMICILIO CONOCIDO    ,29640,-93.10472222,16.96527778,260
CSIMO001244,0,0,1,0,0.927627146,IMSS-PROSPERA,7,CHIAPAS,3,COMITÁN,30,CHICOMUSELO,42,PABLO L. SIDAR,UNIDAD DE CONSULTA EXTERNA,NO ESPECIFICADO,PABLO L. SIDAR,DOMICILIO CONOCIDO    ,30120,-92.27861111,15.82972222,610
CSIMO001886,1,0,1,0.21572268,1,IMSS-PROSPERA,7,CHIAPAS,1,TUXTLA GUTIERREZ,44,IXTAPA,2,AZTLÁN (RANCHO NUEVO),UNIDAD DE CONSULTA EXTERNA,NO ESPECIFICADO,AZTLÁN (RANCHO NUEVO),DOMICILIO CONOCIDO    ,29349,-92.92472222,16.77,1140
CSIMO001891,0,0,1,0,1,IMSS-PROSPERA,7,CHIAPAS,1,TUXTLA GUTIERREZ,44,IXTAPA,15,CHIGTÓN,UNIDAD DE CONSULTA EXTERNA,NO ESPECIFICADO,CHIGTÓN,DOMICILIO CONOCIDO    ,29347,-92.87416667,16.84555556,1090
CSIMO001920,3,1,1,1,1,IMSS-PROSPERA,7,CHIAPAS,5,PICHUCALCO,45,IXTAPANGAJOYA,1,IXTAPANGAJOYA,UNIDAD DE CONSULTA EXTERNA,NO ESPECIFICADO,IXTAPANGAJOYA,DOMICILIO CONOCIDO    ,29590,-93.00222222,17.49583333,125
CSIMO001990,0,0,0,0,0.296815962,IMSS-PROSPERA,7,CHIAPAS,1,TUXTLA GUTIERREZ,46,JIQUIPILAS,103,TIERRA Y LIBERTAD,UNIDAD DE CONSULTA EXTERNA,NO ESPECIFICADO,TIERRA Y LIBERTAD,DOMICILIO CONOCIDO    ,30448,-93.85972222,16.37916667,680
CSIMO002772,0,0,1,0,1,IMSS-PROSPERA,7,CHIAPAS,1,TUXTLA GUTIERREZ,58,NICOLÁS RUÍZ,1,NICOLÁS RUÍZ,UNIDAD DE CONSULTA EXTERNA,NO ESPECIFICADO,NICOLÁS RUÍZ,DOMICILIO CONOCIDO    ,30340,-92.58472222,16.43722222,700
CSIMO003110,3,0,1,0.001512859,1,IMSS-PROSPERA,7,CHIAPAS,1,TUXTLA GUTIERREZ,61,OCOZOCOAUTLA DE ESPINOSA,113,OCUILAPA DE JUÁREZ,UNIDAD DE CONSULTA EXTERNA,NO ESPECIFICADO,OCUILAPA DE JUÁREZ,DOMICILIO CONOCIDO    ,29143,-93.41111111,16.85194444,940
CSIMO003151,2,0,1,0,0.875710249,IMSS-PROSPERA,7,CHIAPAS,1,TUXTLA GUTIERREZ,61,OCOZOCOAUTLA DE ESPINOSA,679,LINDAVISTA,UNIDAD DE CONSULTA EXTERNA,NO ESPECIFICADO,LINDAVISTA,DOMICILIO CONOCIDO    ,00000,-93.66444444,17.09972222,340
CSIMO003204,0,0,1,0,1,IMSS-PROSPERA,7,CHIAPAS,1,TUXTLA GUTIERREZ,63,OSUMACINTA,1,OSUMACINTA,UNIDAD DE CONSULTA EXTERNA,NO ESPECIFICADO,OSUMACINTA,DOMICILIO CONOCIDO    ,29190,-93.09305556,16.94027778,500
CSIMO003250,0,0,1,0,1,IMSS-PROSPERA,7,CHIAPAS,2,SAN CRISTÓBAL DE LAS CASAS,64,OXCHUC,35,TZUNÚN,UNIDAD DE CONSULTA EXTERNA,NO ESPECIFICADO,TZUNÚN,DOMICILIO CONOCIDO    ,29953,-92.37361111,16.84083333,1880
CSIMO003682,0,1,1,1,1,IMSS-PROSPERA,7,CHIAPAS,5,PICHUCALCO,74,REFORMA,6,CRISTO REY,UNIDAD DE CONSULTA EXTERNA,NO ESPECIFICADO,CRISTO REY,DOMICILIO CONOCIDO    ,29506,-93.27638889,17.83805556,40
CSIMO004155,1,1,1,1,1,IMSS-PROSPERA,7,CHIAPAS,7,TAPACHULA,87,SUCHIATE,2,BARRA DE CAHOACÁN (EL CHICAL),UNIDAD DE CONSULTA EXTERNA,NO ESPECIFICADO,BARRA DE CAHOACÁN (EL CHICAL),DOMICILIO CONOCIDO    ,30675,-92.30305556,14.64333333,21
CSIMO004196,0,0,1,0.19411765,1,IMSS-PROSPERA,7,CHIAPAS,7,TAPACHULA,87,SUCHIATE,14,LA LIBERTAD,UNIDAD DE CONSULTA EXTERNA,NO ESPECIFICADO,LA LIBERTAD (SUCHIATE),DOMICILIO CONOCIDO    ,30660,-92.19333333,14.59166667,10
CSIMO004686,0,0,1,0,1,IMSS-PROSPERA,7,CHIAPAS,8,TONALÁ,97,TONALÁ,17,TRES PICOS,UNIDAD DE CONSULTA EXTERNA,NO ESPECIFICADO,TRES PICOS,DOMICILIO CONOCIDO    ,30515,-93.52694444,15.87916667,20
CSIMO004703,0,0,1,0,1,IMSS-PROSPERA,7,CHIAPAS,8,TONALÁ,97,TONALÁ,24,HUIZACHAL,UNIDAD DE CONSULTA EXTERNA,NO ESPECIFICADO,HUIZACHAL,DOMICILIO CONOCIDO    ,30503,-93.79888889,16.05166667,20
CSIMO004744,0,0,1,0,1,IMSS-PROSPERA,7,CHIAPAS,8,TONALÁ,97,TONALÁ,72,MIGUEL HIDALGO NÚMERO DOS (VEINTE DE NOVIEMBRE),UNIDAD DE CONSULTA EXTERNA,NO ESPECIFICADO,MIGUEL HIDALGO NÚMERO DOS (20 DE NOVIEMBRE),DOMICILIO CONOCIDO    ,30504,-93.81,15.95305556,10
CSIMO005234,1,0,1,0,1,IMSS-PROSPERA,7,CHIAPAS,1,TUXTLA GUTIERREZ,106,VENUSTIANO CARRANZA,40,RICARDO FLORES MAGÓN,UNIDAD DE CONSULTA EXTERNA,NO ESPECIFICADO,RICARDO FLORES MAGÓN (VENUSTIANO CARRANZA),DOMICILIO CONOCIDO    ,30300,-92.69583333,16.39416667,470
CSIMO005316,0,0,1,0,1,IMSS-PROSPERA,7,CHIAPAS,4,VILLAFLORES,107,VILLA CORZO,200,REVOLUCIÓN MEXICANA,UNIDAD DE CONSULTA EXTERNA,NO ESPECIFICADO,REVOLUCIÓN MEXICANA,DOMICILIO CONOCIDO    ,30533,-93.07472222,16.17055556,540
CSIMO005386,0,0,1,0,0.993765771,IMSS-PROSPERA,7,CHIAPAS,4,VILLAFLORES,8,ANGEL ALBINO CORZO,16,NUEVA PALESTINA,UNIDAD DE CONSULTA EXTERNA,NO ESPECIFICADO,PALESTINA,DOMICILIO CONOCIDO    ,30375,-92.74972222,15.80527778,730
CSIMO005490,2,0,1,0,0.95256561,IMSS-PROSPERA,7,CHIAPAS,4,VILLAFLORES,108,VILLAFLORES,176,NUEVO MÉXICO,UNIDAD DE CONSULTA EXTERNA,NO ESPECIFICADO,NUEVO MÉXICO (VILLAFLORES),DOMICILIO CONOCIDO    ,30496,-93.43805556,16.46805556,640
CSIMO005531,2,0,1,0,0.990946651,IMSS-PROSPERA,7,CHIAPAS,4,VILLAFLORES,108,VILLAFLORES,664,GUADALUPE VICTORIA,UNIDAD DE CONSULTA EXTERNA,NO ESPECIFICADO,GUADALUPE VICTORIA (VILLAFLORES),DOMICILIO CONOCIDO    ,00000,-93.13916667,16.34777778,550
CSSSA000033,1,0,1,0,1,SSA,7,CHIAPAS,7,TAPACHULA,1,ACACOYAGUA,131,LAS BRISAS,UNIDAD DE CONSULTA EXTERNA,RURAL DE 01 NÚCLEO BÁSICO,LAS BRISAS,CENTRAL CHIAPAS A 200 MTS DE LA CARRETERA FEDERAL HACIA LAS PALMAS   LAS BRISAS ,30590,-92.68722222,15.345,75
CSSSA000050,3,0,1,0.019033194,1,SSA,7,CHIAPAS,1,TUXTLA GUTIERREZ,2,ACALA,1,ACALA,UNIDAD DE CONSULTA EXTERNA,RURAL DE 03 NÚCLEOS BÁSICOS Y MÁS,VILLA DE ACALA,AVENIDA MARIANO NANGO 10  BARRIO CANDELARIA ,29370,-92.80555556,16.55611111,420
CSSSA000103,0,0,1,0,1,SSA,7,CHIAPAS,7,TAPACHULA,3,ACAPETAHUA,61,LAS MURALLAS,UNIDAD DE CONSULTA EXTERNA,RURAL DE 01 NÚCLEO BÁSICO,EJIDO LAS MURALLAS,NO DISPONIBLE    ,30580,-92.84722222,15.26833333,20
CSSSA000436,2,0,1,0,1,SSA,7,CHIAPAS,4,VILLAFLORES,8,ANGEL ALBINO CORZO,15,NUEVA INDEPENDENCIA,UNIDAD DE CONSULTA EXTERNA,RURAL DE 01 NÚCLEO BÁSICO,NUEVA INDEPENDENCIA,FRENTE A LA ESCUELA TELESECUNDARIA   BARRIO SAN JOSÉ ,30495,-92.57444444,15.67305556,830
CSSSA000465,1,0,1,0,1,SSA,7,CHIAPAS,8,TONALÁ,9,ARRIAGA,1,ARRIAGA,UNIDAD DE CONSULTA EXTERNA,URBANO DE 06 NÚCLEOS BÁSICOS,ARRIAGA,SEGUNDA SUR Y TERCERA PONIENTE SIN NÚMERO  CENTRO ,30450,-93.89861111,16.23388889,60
CSSSA000506,2,0,1,0,1,SSA,7,CHIAPAS,8,TONALÁ,9,ARRIAGA,46,LA GLORIA,UNIDAD DE CONSULTA EXTERNA,RURAL DE 01 NÚCLEO BÁSICO,PESQUERÍA LA GLORIA,NUEVO POBLADO LA GLORIA    ,30450,-94.09305556,16.14972222,5
CSSSA000576,0,0,1,0,1,SSA,7,CHIAPAS,10,MOTOZINTLA,10,BEJUCAL DE OCAMPO,19,OJO DE AGUA CENTRO,UNIDAD DE CONSULTA EXTERNA,RURAL DE 01 NÚCLEO BÁSICO,OJO DE AGUA CENTRO,NO DISPONIBLE    ,30950,-92.17277778,15.49861111,2240
CSSSA000774,0,1,1,1,1,SSA,7,CHIAPAS,7,TAPACHULA,15,CACAHOATÁN,1,CACAHOATÁN,UNIDAD DE CONSULTA EXTERNA,RURAL DE 03 NÚCLEOS BÁSICOS Y MÁS,CACAHOATÁN,NO DISPONIBLE 20   ,30890,-92.16527778,14.98916667,480
CSSSA000844,3,1,1,0.999811172,0.999811172,SSA,7,CHIAPAS,1,TUXTLA GUTIERREZ,17,CINTALAPA,1,CINTALAPA DE FIGUEROA,UNIDAD DE CONSULTA EXTERNA,URBANO DE 01 NÚCLEOS BÁSICOS,CINTALAPA,NO DISPONIBLE   BARRIO SANTO DOMINGO ,30400,-93.72166667,16.695,520
CSSSA000890,3,0,1,0,0.83716321,SSA,7,CHIAPAS,1,TUXTLA GUTIERREZ,17,CINTALAPA,95,POMPOSO CASTELLANOS,UNIDAD DE CONSULTA EXTERNA,RURAL DE 01 NÚCLEO BÁSICO,POMPOSO CASTELLANOS,AVENIDA SEGUNDA NORTE PONIENTE ENTRE CALLE CENTRAL NORTE    ,30400,-93.86777778,16.59,610
CSSSA001001,3,0,1,0,1,SSA,7,CHIAPAS,1,TUXTLA GUTIERREZ,18,COAPILLA,13,BUENAVISTA (MATASANOS),UNIDAD DE CONSULTA EXTERNA,RURAL DE 01 NÚCLEO BÁSICO,LIC. BUENAVISTA MATA SANOS,NO DISPONIBLE    ,29650,-93.06694444,17.10666667,1400
CSSSA001042,0,1,1,1,1,SSA,7,CHIAPAS,3,COMITÁN,19,COMITÁN DE DOMÍNGUEZ,1,COMITÁN DE DOMÍNGUEZ,UNIDAD DE CONSULTA EXTERNA,URBANO DE 12 NÚCLEOS BÁSICOS Y MÁS,COMITÁN DE DOMÍNGUEZ,NULL,30000,-92.13416667,16.25111111,1630
CSSSA001182,0,0,1,0,1,SSA,7,CHIAPAS,4,VILLAFLORES,20,LA CONCORDIA,1,LA CONCORDIA,UNIDAD DE CONSULTA EXTERNA,CENTRO DE SALUD CON HOSPITALIZACIÓN,NUEVA CONCORDIA,PRIMERA ORIENTE Y SEGUNDA NORTE SIN NÚMERO  CENTRO ,30360,-92.68888889,16.11611111,540
CSSSA001252,1,0,1,0,0.991304338,SSA,7,CHIAPAS,4,VILLAFLORES,20,LA CONCORDIA,29,REFORMA,UNIDAD DE CONSULTA EXTERNA,RURAL DE 01 NÚCLEO BÁSICO,REFORMA,FRENTE AL PARQUE CENTRAL DE LA COLONIA    ,30495,-92.66472222,15.9175,530
CSSSA001276,0,0,1,0,1,SSA,7,CHIAPAS,4,VILLAFLORES,20,LA CONCORDIA,114,DIAMANTE DE ECHEVERRÍA,UNIDAD DE CONSULTA EXTERNA,RURAL DE 01 NÚCLEO BÁSICO,DIAMANTE DE ECHEVERRÍA,FRENTE AL PARQUE CENTRAL    ,30495,-92.88027778,16.11361111,550
CSSSA001281,3,0,0,0,0.531972051,SSA,7,CHIAPAS,4,VILLAFLORES,20,LA CONCORDIA,145,EL ÁMBAR (EL ÁMBAR DE ECHEVERRÍA),UNIDAD DE CONSULTA EXTERNA,RURAL DE 02 NÚCLEOS BÁSICOS,EL ÁMBAR DE ECHEVERRÍA,FRENTE AL PARQUE CENTRAL    ,30360,-92.83333333,16.0975,550
CSSSA001322,3,0,1,0,1,SSA,7,CHIAPAS,1,TUXTLA GUTIERREZ,21,COPAINALÁ,1,COPAINALÁ,UNIDAD DE CONSULTA EXTERNA,CENTRO DE SALUD CON HOSPITALIZACIÓN,COPAINALÁ,SEGUNDA NORTE PONIENTE 7   ,29620,-93.21055556,17.09361111,450
CSSSA001672,1,0,1,0.316371679,1,SSA,7,CHIAPAS,1,TUXTLA GUTIERREZ,27,CHIAPA DE CORZO,61,NARCISO MENDOZA,UNIDAD DE CONSULTA EXTERNA,RURAL DE 01 NÚCLEO BÁSICO,NARCISO MENDOZA,NO DISPONIBLE    ,29170,-92.98861111,16.57972222,420
CSSSA001725,0,0,1,0,1,SSA,7,CHIAPAS,3,COMITÁN,30,CHICOMUSELO,1,CHICOMUSELO,UNIDAD DE CONSULTA EXTERNA,RURAL DE 02 NÚCLEOS BÁSICOS,CHICOMUSELO,NO DISPONIBLE    ,30120,-92.285,15.74166667,585
CSSSA001836,3,0,1,0,1,SSA,7,CHIAPAS,9,OCOSINGO,31,CHILÓN,7,AURORA GRANDE,UNIDAD DE CONSULTA EXTERNA,RURAL DE 01 NÚCLEO BÁSICO,AURORA GRANDE,NO DISPONIBLE    ,29940,-92.35555556,17.13333333,1440
CSSSA002010,2,0,1,0,1,SSA,7,CHIAPAS,9,OCOSINGO,31,CHILÓN,237,JUAN SABINES VERAPAZ,UNIDAD DE CONSULTA EXTERNA,RURAL DE 01 NÚCLEO BÁSICO,JUNA SABINES VERAPAZ,NO DISPONIBLE    ,29940,-92.30777778,17.07583333,1360
CSSSA002256,0,0,0,0,0.310866922,SSA,7,CHIAPAS,7,TAPACHULA,32,ESCUINTLA,70,EL TRIUNFO,UNIDAD DE CONSULTA EXTERNA,RURAL DE 02 NÚCLEOS BÁSICOS,EL TRIUNFO,NO DISPONIBLE SIN NÚMERO   ,30600,-92.54472222,15.35194444,300
CSSSA002314,2,0,1,0,1,SSA,7,CHIAPAS,3,COMITÁN,34,FRONTERA COMALAPA,1,FRONTERA COMALAPA,UNIDAD DE CONSULTA EXTERNA,URBANO DE 08 NÚCLEOS BÁSICOS,FRONTERA COMALAPA,NO DISPONIBLE SIN NÚMERO  CENTRO ,30140,-92.14138889,15.65833333,670
CSSSA002331,3,0,1,0,0.997384131,SSA,7,CHIAPAS,3,COMITÁN,34,FRONTERA COMALAPA,14,CIUDAD CUAUHTÉMOC,UNIDAD DE CONSULTA EXTERNA,RURAL DE 01 NÚCLEO BÁSICO,CD. CUAUHTÉMOC,NO DISPONIBLE    ,30150,-92.00416667,15.66694444,720
CSSSA002384,0,0,1,0,0.992317021,SSA,7,CHIAPAS,3,COMITÁN,34,FRONTERA COMALAPA,114,VERAPAZ,UNIDAD DE CONSULTA EXTERNA,RURAL DE 01 NÚCLEO BÁSICO,VERAPAZ,NO DISPONIBLE    ,30154,-92.06444444,15.71416667,700
CSSSA002401,1,1,1,1,1,SSA,7,CHIAPAS,7,TAPACHULA,35,FRONTERA HIDALGO,1,FRONTERA HIDALGO,UNIDAD DE CONSULTA EXTERNA,RURAL DE 01 NÚCLEO BÁSICO,FRONTERA HIDALGO,NO DISPONIBLE SIN NÚMERO   ,30850,-92.17666667,14.77694444,60
CSSSA002430,2,0,1,0.038721573,1,SSA,7,CHIAPAS,7,TAPACHULA,37,HUEHUETÁN,1,HUEHUETÁN,UNIDAD DE CONSULTA EXTERNA,RURAL DE 02 NÚCLEOS BÁSICOS,HUEHUETÁN,NO DISPONIBLE SIN NÚMERO   ,30660,-92.38083333,15.01916667,50
CSSSA002623,3,0,1,0,1,SSA,7,CHIAPAS,7,TAPACHULA,40,HUIXTLA,1,HUIXTLA,UNIDAD DE CONSULTA EXTERNA,URBANO DE 05 NÚCLEOS BÁSICOS,CENTRO DE SALUD URBANO HUIXTLA,NO DISPONIBLE SIN NÚMERO   ,30640,-92.46583333,15.13888889,40
CSSSA002734,0,1,1,0.897620738,1,SSA,7,CHIAPAS,3,COMITÁN,41,LA INDEPENDENCIA,18,EMILIANO ZAPATA,UNIDAD DE CONSULTA EXTERNA,RURAL DE 01 NÚCLEO BÁSICO,EMILIANO ZAPATA,NO DISPONIBLE    ,30170,-91.96638889,16.18111111,1556
CSSSA002816,0,0,1,0,1,SSA,7,CHIAPAS,5,PICHUCALCO,43,IXTACOMITÁN,1,IXTACOMITÁN,UNIDAD DE CONSULTA EXTERNA,RURAL DE 02 NÚCLEOS BÁSICOS,IXTACOMITÁN,JATO SIN NÚMERO  FRACCIONAMIENTO JATO ,29570,-93.095,17.43027778,150
CSSSA003026,2,0,1,0,0.82929343,SSA,7,CHIAPAS,1,TUXTLA GUTIERREZ,46,JIQUIPILAS,513,BENITO JUÁREZ,UNIDAD DE CONSULTA EXTERNA,RURAL DE 01 NÚCLEO BÁSICO,BENITO JUÁREZ,NO DISPONIBLE    ,30430,-93.60944444,16.77861111,734
CSSSA003125,3,0,1,0,1,SSA,7,CHIAPAS,2,SAN CRISTÓBAL DE LAS CASAS,49,LARRÁINZAR,5,BAYALEMO DOS,UNIDAD DE CONSULTA EXTERNA,RURAL DE 01 NÚCLEO BÁSICO,BAYALEMHO DOS,NO DISPONIBLE    ,29860,-92.76555556,16.93194444,1760
CSSSA003615,3,0,1,0,0.979406893,SSA,7,CHIAPAS,10,MOTOZINTLA,53,MAZAPA DE MADERO,7,GRANADOS TALCANAQUE,UNIDAD DE CONSULTA EXTERNA,RURAL DE 01 NÚCLEO BÁSICO,GRANADOS TALCANAQUE,NO DISPONIBLE SIN NÚMERO   ,30920,-92.21222222,15.28388889,2200
CSSSA003726,0,0,1,0,0.993188918,SSA,7,CHIAPAS,10,MOTOZINTLA,57,MOTOZINTLA,1,MOTOZINTLA DE MENDOZA,UNIDAD DE CONSULTA EXTERNA,URBANO DE 04 NÚCLEOS BÁSICOS,MOTOZINTLA DE MENDOZA,NO DISPONIBLE 733  BARRIO EMILIANO ZAPATA ,30900,-92.24805556,15.36416667,1260
CSSSA004443,2,0,1,0,1,SSA,7,CHIAPAS,5,PICHUCALCO,62,OSTUACÁN,19,PLAN DE AYALA,UNIDAD DE CONSULTA EXTERNA,RURAL DE 01 NÚCLEO BÁSICO,PLAN DE AYALA,MORENO GALEANA SIN NÚMERO   ,29550,-93.48638889,17.47416667,60
CSSSA004600,2,1,1,0.998594403,0.999180079,SSA,7,CHIAPAS,6,PALENQUE,65,PALENQUE,1,PALENQUE,UNIDAD DE CONSULTA EXTERNA,URBANO DE 09 NÚCLEOS BÁSICOS,PALENQUE,PROLONGACIÓN JUÁREZ ESQUINA JORGE DE LA VEGA DOMINGUEZ    ,29960,-91.98222222,17.50916667,60
CSSSA004670,1,0,1,0.050346591,1,SSA,7,CHIAPAS,6,PALENQUE,65,PALENQUE,77,NUEVA ESPERANZA 1RA. SECCIÓN,UNIDAD DE CONSULTA EXTERNA,RURAL DE 01 NÚCLEO BÁSICO,NUEVA ESPERANZA 1ª SECCIÓN,KM. 95 CARRETERA VILLAHERMOSA-ESCARCEGA    ,29960,-92.18805556,17.70194444,20
CSSSA004793,2,0,1,0.033052497,1,SSA,7,CHIAPAS,6,PALENQUE,65,PALENQUE,196,SATURNINO RÍOS,UNIDAD DE CONSULTA EXTERNA,RURAL DE 01 NÚCLEO BÁSICO,SATURNINO RÍOS,A UN COSTADO DE LA ESCUELA PRIMARIA    ,29960,-92.19361111,17.62833333,20
CSSSA005032,0,0,1,0,1,SSA,7,CHIAPAS,8,TONALÁ,69,PIJIJIAPAN,3,LAS BRISAS,UNIDAD DE CONSULTA EXTERNA,RURAL DE 01 NÚCLEO BÁSICO,LAS BRISAS,A LA VUELTA DE LA IGLESIA CATÓLICA    ,30540,-93.11694444,15.51888889,6
CSSSA005073,0,0,1,0.433813542,1,SSA,7,CHIAPAS,8,TONALÁ,69,PIJIJIAPAN,21,HERMENEGILDO GALEANA,UNIDAD DE CONSULTA EXTERNA,RURAL DE 01 NÚCLEO BÁSICO,HERMENEGILDO GALEANA,A LA VUELTA DE LA CASA DEL AGENTE MUNICIPAL    ,30540,-93.00722222,15.55388889,50
CSSSA005085,0,0,1,0,1,SSA,7,CHIAPAS,8,TONALÁ,69,PIJIJIAPAN,23,TAMAULIPAS (JOAQUÍN AMARO),UNIDAD DE CONSULTA EXTERNA,RURAL DE 01 NÚCLEO BÁSICO,JOAQUÍN AMARO (EJIDO TAMAULIPAS),FRENTE A LA COOPERATIVA PESQUERA    ,30540,-93.4075,15.77361111,18
CSSSA005131,0,0,1,0,1,SSA,7,CHIAPAS,8,TONALÁ,69,PIJIJIAPAN,42,SAN ISIDRO,UNIDAD DE CONSULTA EXTERNA,RURAL DE 01 NÚCLEO BÁSICO,SAN ISIDRO,GUSTAVO THOMAS SIN NÚMERO   ,30540,-93.35416667,15.74305556,20
CSSSA005266,2,0,1,0,1,SSA,7,CHIAPAS,7,TAPACHULA,71,VILLA COMALTITLÁN,1,VILLA COMALTITLÁN,UNIDAD DE CONSULTA EXTERNA,RURAL DE 03 NÚCLEOS BÁSICOS Y MÁS,VILLA COLMALTITLÁN,CUARTA SUR ENTRE SEGUNDA Y CUARTA ORIENTE ESQUINA CON VÍA DEL FERROCARRIL SIN NÚMERO   ,30620,-92.575,15.21388889,40
CSSSA005341,1,0,1,0,1,SSA,7,CHIAPAS,5,PICHUCALCO,72,PUEBLO NUEVO SOLISTAHUACÁN,1,PUEBLO NUEVO SOLISTAHUACÁN,UNIDAD DE CONSULTA EXTERNA,CENTRO DE SALUD CON HOSPITALIZACIÓN,PUEBLO NUEVO SOLISTAHUACÁN,PRIMERA NORTE Y SEGUNDA PONIENTE   BARRIO GUADALUPE ,29750,-92.89916667,17.15916667,1720
CSSSA005464,2,1,1,1,1,SSA,7,CHIAPAS,5,PICHUCALCO,74,REFORMA,1,REFORMA,UNIDAD DE CONSULTA EXTERNA,CENTRO DE SALUD CON HOSPITALIZACIÓN,REFORMA,NO DISPONIBLE    ,29500,-93.14638889,17.86388889,20
CSSSA005510,0,0,1,0,1,SSA,7,CHIAPAS,2,SAN CRISTÓBAL DE LAS CASAS,75,LAS ROSAS,1,LAS ROSAS,UNIDAD DE CONSULTA EXTERNA,URBANO DE 05 NÚCLEOS BÁSICOS,LAS ROSAS,NO DISPONIBLE SIN NÚMERO   ,30350,-92.37083333,16.3625,1300
CSSSA005645,2,0,1,0,1,SSA,7,CHIAPAS,6,PALENQUE,77,SALTO DE AGUA,1,SALTO DE AGUA,UNIDAD DE CONSULTA EXTERNA,CENTRO DE SALUD CON HOSPITALIZACIÓN,SALTO DE AGUA,NO DISPONIBLE SIN NÚMERO   ,29900,-92.33388889,17.55555556,10
CSSSA005785,0,1,1,1,1,SSA,7,CHIAPAS,2,SAN CRISTÓBAL DE LAS CASAS,78,SAN CRISTÓBAL DE LAS CASAS,1,SAN CRISTÓBAL DE LAS CASAS,UNIDAD DE CONSULTA EXTERNA,URBANO DE 12 NÚCLEOS BÁSICOS Y MÁS,"SAN CRISTÓBAL DE LAS CASAS, CHIAPAS",NO DISPONIBLE SIN NÚMERO   ,29270,-92.63833333,16.73666667,1940
CSSSA005966,0,0,1,0,1,SSA,7,CHIAPAS,10,MOTOZINTLA,80,SILTEPEC,27,SAN ANTONIO LA PINADA,UNIDAD DE CONSULTA EXTERNA,RURAL DE 01 NÚCLEO BÁSICO,SAN ANTONIO LA PINADA,DOMICILIO CONOCIDO    ,30980,-92.32277778,15.61777778,1840
CSSSA006094,3,0,1,0,1,SSA,7,CHIAPAS,5,PICHUCALCO,81,SIMOJOVEL,1,SIMOJOVEL DE ALLENDE,UNIDAD DE CONSULTA EXTERNA,CENTRO DE SALUD CON HOSPITALIZACIÓN,SIMOJOVEL,NO DISPONIBLE 22   ,29820,-92.71416667,17.14,660
CSSSA006263,0,0,1,0,1,SSA,7,CHIAPAS,3,COMITÁN,83,SOCOLTENANGO,1,SOCOLTENANGO,UNIDAD DE CONSULTA EXTERNA,CENTROS DE SALUD CON SERVICIOS AMPLIADOS,SOCOLTENANGO,NO DISPONIBLE SIN NÚMERO  BARRIO EL CAMPO ,30390,-92.35055556,16.24305556,860
CSSSA006333,1,0,1,0,1,SSA,7,CHIAPAS,5,PICHUCALCO,84,SOLOSUCHIAPA,5,CERRO LAS CAMPANAS,UNIDAD DE CONSULTA EXTERNA,RURAL DE 01 NÚCLEO BÁSICO,CERRO DE LAS CAMPANAS,NO DISPONIBLE    ,29580,-92.97277778,17.33333333,620
CSSSA006350,0,1,1,0.832055986,1,SSA,7,CHIAPAS,1,TUXTLA GUTIERREZ,86,SUCHIAPA,23,PACÚ,UNIDAD DE CONSULTA EXTERNA,RURAL DE 01 NÚCLEO BÁSICO,PACÚ,NO DISPONIBLE SIN NÚMERO   ,29150,-93.13444444,16.63583333,480
CSSSA006456,0,1,1,1,1,SSA,7,CHIAPAS,7,TAPACHULA,89,TAPACHULA,46,ÁLVARO OBREGÓN,UNIDAD DE CONSULTA EXTERNA,RURAL DE 01 NÚCLEO BÁSICO,ÁLVARO OBREGÓN,NO DISPONIBLE    ,30700,-92.37888889,14.92194444,40
CSSSA006473,2,1,1,1,1,SSA,7,CHIAPAS,7,TAPACHULA,89,TAPACHULA,60,CEBADILLA 2DA. SECCIÓN,UNIDAD DE CONSULTA EXTERNA,RURAL DE 01 NÚCLEO BÁSICO,CEBADILLA 2A. SECCIÓN,NO DISPONIBLE    ,30820,-92.28388889,14.83444444,60
CSSSA006485,2,1,0,0.8877303,0.115745567,SSA,7,CHIAPAS,7,TAPACHULA,89,TAPACHULA,77,EL EDÉN,UNIDAD DE CONSULTA EXTERNA,RURAL DE 01 NÚCLEO BÁSICO,EL EDÉN,NO DISPONIBLE SIN NÚMERO   ,30700,-92.30027778,15.06166667,580
CSSSA006531,0,1,1,1,1,SSA,7,CHIAPAS,7,TAPACHULA,89,TAPACHULA,148,PUERTO MADERO (SAN BENITO),UNIDAD DE CONSULTA EXTERNA,RURAL DE 03 NÚCLEOS BÁSICOS Y MÁS,PUERTO MADERO,NO DISPONIBLE SIN NÚMERO   ,30700,-92.42555556,14.71916667,1
CSSSA006695,0,0,1,0,1,SSA,7,CHIAPAS,1,TUXTLA GUTIERREZ,92,TECPATÁN,1,TECPATÁN,UNIDAD DE CONSULTA EXTERNA,CENTRO DE SALUD CON HOSPITALIZACIÓN,TECPATAN,NO DISPONIBLE    ,29610,-93.31111111,17.13611111,320
CSSSA006765,0,0,1,0,0.953788638,SSA,7,CHIAPAS,1,TUXTLA GUTIERREZ,92,TECPATÁN,31,RAUDALES MALPASO,UNIDAD DE CONSULTA EXTERNA,CENTRO DE SALUD CON HOSPITALIZACIÓN,RAUDALES MALPASO,NO DISPONIBLE SIN NÚMERO   ,29600,-93.60722222,17.18611111,200
CSSSA006905,1,0,1,0,1,SSA,7,CHIAPAS,2,SAN CRISTÓBAL DE LAS CASAS,94,TEOPISCA,62,BETANIA,UNIDAD DE CONSULTA EXTERNA,RURAL DE 02 NÚCLEOS BÁSICOS,BETANIA,NO DISPONIBLE SIN NÚMERO   ,29410,-92.52305556,16.61,2080
CSSSA007144,3,0,1,0,1,SSA,7,CHIAPAS,8,TONALÁ,97,TONALÁ,26,IGNACIO RAMÍREZ,UNIDAD DE CONSULTA EXTERNA,RURAL DE 01 NÚCLEO BÁSICO,IGNACIO RAMÍREZ,NO DISPONIBLE    ,30500,-93.87138889,16.11194444,10
CSSSA007185,0,0,1,0,1,SSA,7,CHIAPAS,8,TONALÁ,97,TONALÁ,44,PUEBLO NUEVO (SAN CAYETANO),UNIDAD DE CONSULTA EXTERNA,RURAL DE 01 NÚCLEO BÁSICO,PUEBLO NUEVO,NO DISPONIBLE    ,30500,-93.65527778,15.85555556,20
CSSSA007260,3,0,1,0,1,SSA,7,CHIAPAS,1,TUXTLA GUTIERREZ,98,TOTOLAPA,1,TOTOLAPA,UNIDAD DE CONSULTA EXTERNA,RURAL DE 01 NÚCLEO BÁSICO,TOTOLAPA,NO DISPONIBLE SIN NÚMERO   ,30330,-92.68111111,16.54444444,620
CSSSA007284,3,1,1,0.926488817,0.979942083,SSA,7,CHIAPAS,3,COMITÁN,,LA TRINITARIA,1,LA TRINITARIA,UNIDAD DE CONSULTA EXTERNA,CENTROS DE SALUD CON SERVICIOS AMPLIADOS,LA TRINITARIA,NO DISPONIBLE   BARRIO EL TIMBRAL ,30160,-92.05166667,16.11777778,1540
CSSSA007296,1,0,1,0,1,SSA,7,CHIAPAS,3,COMITÁN,,LA TRINITARIA,5,ÁLVARO OBREGÓN,UNIDAD DE CONSULTA EXTERNA,RURAL DE 01 NÚCLEO BÁSICO,ÁLVARO OBREGÓN,NO DISPONIBLE    ,30160,-91.84416667,16.0925,1465
CSSSA007371,1,0,1,0,1,SSA,7,CHIAPAS,3,COMITÁN,,LA TRINITARIA,313,TZISCAO,UNIDAD DE CONSULTA EXTERNA,RURAL DE 01 NÚCLEO BÁSICO,TZISCAO,NO DISPONIBLE    ,30160,-91.66527778,16.08027778,1500
CSSSA007453,0,0,1,0,0.996433675,SSA,7,CHIAPAS,3,COMITÁN,,LA TRINITARIA,689,NUEVA LIBERTAD (EL COLORADO),UNIDAD DE CONSULTA EXTERNA,RURAL DE 01 NÚCLEO BÁSICO,NUEVA LIBERTAD (EL COLORADO),NO DISPONIBLE    ,30160,-92.06,15.90111111,680
CSSSA007605,2,1,1,1,1,SSA,7,CHIAPAS,1,TUXTLA GUTIERREZ,101,TUXTLA GUTIÉRREZ,1,TUXTLA GUTIÉRREZ,UNIDAD DE CONSULTA EXTERNA,URBANO DE 03 NÚCLEOS BÁSICOS,ALBANIA (EL VALLE),NO DISPONIBLE SIN NÚMERO  FRACCIONAMIENTO EL VALLE ,29010,-93.11666667,16.75277778,600
CSSSA007622,2,1,1,1,1,SSA,7,CHIAPAS,1,TUXTLA GUTIERREZ,101,TUXTLA GUTIÉRREZ,1,TUXTLA GUTIÉRREZ,UNIDAD DE CONSULTA EXTERNA,URBANO DE 05 NÚCLEOS BÁSICOS,TERAN,NO DISPONIBLE 215   ,29100,-93.11666667,16.75277778,600
CSSSA007680,3,1,1,1,1,SSA,7,CHIAPAS,7,TAPACHULA,102,TUXTLA CHICO,12,1RA. SECCIÓN DE MEDIO MONTE,UNIDAD DE CONSULTA EXTERNA,RURAL DE 01 NÚCLEO BÁSICO,C.S. PRIMERA SECCIÓN DE MEDIO MONTE,NO DISPONIBLE SIN NÚMERO   ,99999,-92.20944444,14.89055556,160
CSSSA007791,1,0,1,0,1,SSA,7,CHIAPAS,3,COMITÁN,104,TZIMOL,17,OCHUSJOB,UNIDAD DE CONSULTA EXTERNA,RURAL DE 01 NÚCLEO BÁSICO,OCHUSJOB,NO DISPONIBLE    ,30110,-92.25222222,16.22583333,1420
CSSSA007820,1,1,1,1,1,SSA,7,CHIAPAS,7,TAPACHULA,105,UNIÓN JUÁREZ,1,UNIÓN JUÁREZ,UNIDAD DE CONSULTA EXTERNA,RURAL DE 01 NÚCLEO BÁSICO,UNIÓN JUÁREZ,NO DISPONIBLE SIN NÚMERO   ,30880,-92.08055556,15.0625,1300
CSSSA007844,1,0,1,0,0.998895526,SSA,7,CHIAPAS,1,TUXTLA GUTIERREZ,106,VENUSTIANO CARRANZA,1,VENUSTIANO CARRANZA,UNIDAD DE CONSULTA EXTERNA,RURAL DE 03 NÚCLEOS BÁSICOS Y MÁS,VENUSTIANO CARRANZA,NO DISPONIBLE 28   ,30200,-92.56388889,16.33805556,780
CSSSA007902,0,0,1,0,1,SSA,7,CHIAPAS,1,TUXTLA GUTIERREZ,106,VENUSTIANO CARRANZA,170,PRESIDENTE ECHEVERRÍA (LAJA TENDIDA),UNIDAD DE CONSULTA EXTERNA,RURAL DE 01 NÚCLEO BÁSICO,LAJA TENDIDA,NO DISPONIBLE SIN NÚMERO   ,30240,-92.66861111,16.33583333,540
CSSSA007931,0,0,1,0,0.999130964,SSA,7,CHIAPAS,4,VILLAFLORES,107,VILLA CORZO,1,VILLA CORZO,UNIDAD DE CONSULTA EXTERNA,RURAL DE 03 NÚCLEOS BÁSICOS Y MÁS,VILLACORZO,TERCERA PONIENTE ENTRE PRIMERA SUR Y AVENIDA CENTRAL SIN NÚMERO   ,30520,-93.26861111,16.18527778,580
CSSSA007943,0,0,1,0,0.999138951,SSA,7,CHIAPAS,4,VILLAFLORES,107,VILLA CORZO,34,SAN PEDRO BUENAVISTA,UNIDAD DE CONSULTA EXTERNA,RURAL DE 02 NÚCLEOS BÁSICOS,SN. PEDRO BUENAVISTA,CARRETERA VILLACORZO-REVOLUCIÓN MEXICANA SEXTA AVENIDA NORTE SIN NÚMERO   ,30525,-93.16388889,16.13333333,580
CSSSA007960,0,0,1,0,1,SSA,7,CHIAPAS,4,VILLAFLORES,107,VILLA CORZO,166,EL PARRAL,UNIDAD DE CONSULTA EXTERNA,RURAL DE 02 NÚCLEOS BÁSICOS,EL PARRAL,PRIMERA AVENIDA SUR Y SEGUNDA PONIENTE   EL PARRAL ,30520,-93.00638889,16.36611111,620
CSSSA008153,0,0,0,0,0.095019862,SSA,7,CHIAPAS,4,VILLAFLORES,108,VILLAFLORES,81,DOCTOR DOMINGO CHANONA,UNIDAD DE CONSULTA EXTERNA,RURAL DE 01 NÚCLEO BÁSICO,DR. DOMINGO CHANONA,ENTRADA A LA COLONIA AL LADO DE LA SECUNDARIA    ,30490,-93.4175,16.34611111,640
CSSSA008165,1,0,1,0,1,SSA,7,CHIAPAS,4,VILLAFLORES,108,VILLAFLORES,120,JESÚS MARÍA GARZA,UNIDAD DE CONSULTA EXTERNA,RURAL DE 02 NÚCLEOS BÁSICOS,JESÚS MA. GARZA,TERCERA NORTE Y TERCERA ORIENTE   CENTRO ,30493,-93.29166667,16.39444444,620
CSSSA008211,0,0,1,0,0.901910841,SSA,7,CHIAPAS,4,VILLAFLORES,108,VILLAFLORES,349,TIERRA Y LIBERTAD,UNIDAD DE CONSULTA EXTERNA,RURAL DE 01 NÚCLEO BÁSICO,TIERRA Y LIBERTAD,FRENTE AL CAMPO DE FOTBALL SOCCER    ,30490,-93.70444444,16.23638889,1140
CSSSA008445,0,0,1,0,1,SSA,7,CHIAPAS,2,SAN CRISTÓBAL DE LAS CASAS,112,SAN JUAN CANCUC,7,CHACTÉ,UNIDAD DE CONSULTA EXTERNA,RURAL DE 01 NÚCLEO BÁSICO,CHACTÉ,NO DISPONIBLE    ,29453,-92.34222222,16.93972222,1140
CSSSA008701,2,0,1,0,1,SSA,7,CHIAPAS,2,SAN CRISTÓBAL DE LAS CASAS,23,CHAMULA,127,BASHEQUEN,UNIDAD DE CONSULTA EXTERNA,RURAL DE 01 NÚCLEO BÁSICO,BASHEQUÉM,NO DISPONIBLE    ,29320,-92.60805556,16.88555556,2070
CSSSA008725,2,0,1,0,1,SSA,7,CHIAPAS,2,SAN CRISTÓBAL DE LAS CASAS,64,OXCHUC,19,LELENCHIJ,UNIDAD DE CONSULTA EXTERNA,RURAL DE 01 NÚCLEO BÁSICO,LELENCHIG,NO DISPONIBLE    ,99999,-92.41194444,16.84166667,1900
CSSSA009063,0,0,1,0,1,SSA,7,CHIAPAS,2,SAN CRISTÓBAL DE LAS CASAS,23,CHAMULA,12,CALLEJÓN,UNIDAD DE CONSULTA EXTERNA,RURAL DE 01 NÚCLEO BÁSICO,CALLEJÓN,NO DISPONIBLE    ,99999,-92.70972222,16.86805556,2020
CSSSA009080,0,1,1,1,1,SSA,7,CHIAPAS,1,TUXTLA GUTIERREZ,27,CHIAPA DE CORZO,65,NUEVA PALESTINA (NANDAYACUTI),UNIDAD DE CONSULTA EXTERNA,RURAL DE 01 NÚCLEO BÁSICO,NUEVA PALESTINA,NO DISPONIBLE    ,29160,-92.97305556,16.6625,440
CSSSA009150,3,1,1,0.978589416,1,SSA,7,CHIAPAS,1,TUXTLA GUTIERREZ,46,JIQUIPILAS,112,VICENTE GUERRERO,UNIDAD DE CONSULTA EXTERNA,RURAL DE 01 NÚCLEO BÁSICO,VICENTE GUERRERO,NO DISPONIBLE    ,30430,-93.58111111,16.65972222,500
CSSSA018006,1,1,1,1,1,SSA,7,CHIAPAS,7,TAPACHULA,54,MAZATÁN,1,MAZATÁN,UNIDAD DE CONSULTA EXTERNA,URBANO DE 03 NÚCLEOS BÁSICOS,MAZATÁN,PERIFÉRICO NORTE PROLONGACIÓN AVENIDA ALLENDE ATRÁS DE LA CLÍNICA DEL IMSS SIN NÚMERO  BARRIO SAN JOSÉ ,30650,-92.45,14.8625,20
CSSSA018093,0,0,1,0,1,SSA,7,CHIAPAS,5,PICHUCALCO,62,OSTUACÁN,139,NUEVO JUAN DEL GRIJALVA,UNIDAD DE CONSULTA EXTERNA,CENTROS DE SALUD CON SERVICIOS AMPLIADOS,NUEVO JUAN DEL GRIJALVA,DOMICILIO CONOCIDO    ,99999,-93.37222222,93.37222222,932220
CSSSA018414,0,1,1,1,1,SSA,7,CHIAPAS,3,COMITÁN,52,LAS MARGARITAS,1,LAS MARGARITAS,UNIDAD DE CONSULTA EXTERNA,URBANO DE 07 NÚCLEOS BÁSICOS,LAS MARGARITAS,CUARTA NORTE ORIENTE Y SEGUNDA AVENIDA ORIENTE NORTE SIN NÚMERO   ,30180,-91.98166667,16.31527778,1521
CSSSA018431,1,0,1,0,1,SSA,7,CHIAPAS,1,TUXTLA GUTIERREZ,110,SAN LUCAS,1,SAN LUCAS,UNIDAD DE CONSULTA EXTERNA,CENTROS DE SALUD CON SERVICIOS AMPLIADOS,CESSA SAN LUCAS,FRANCISCO I.  MADERO CERCA DEL OJO DE AGUA SIN NÚMERO  BARRIO EL TRIUNFO ,29400,-92.71805556,16.61166667,660
CSSSA018653,0,0,1,0,1,SSA,7,CHIAPAS,8,TONALÁ,69,PIJIJIAPAN,5,CACHIMBO,UNIDAD DE CONSULTA EXTERNA,RURAL DE 01 NÚCLEO BÁSICO,CACHIMBO,PRINCIPAL ANTES DEL CRUCERO DEL CAMINO A LAS GARZAS    ,30540,-93.24527778,15.67833333,27
CSSSA018682,3,0,1,0,1,SSA,7,CHIAPAS,8,TONALÁ,97,TONALÁ,46,LA POLKA,UNIDAD DE CONSULTA EXTERNA,RURAL DE 01 NÚCLEO BÁSICO,LA POLKA,A 50 METROS DE LA CALLE PRINCIPAL DESPUÉS DE LA IGLESIA CATÓLICA    ,30500,-93.66444444,15.95888889,15
CSSSA018962,1,0,1,0,1,SSA,7,CHIAPAS,3,COMITÁN,104,TZIMOL,1,TZIMOL,UNIDAD DE CONSULTA EXTERNA,CENTROS DE SALUD CON SERVICIOS AMPLIADOS,TZIMOL,CARRETERA COMITAN-PIJILTIC KM. 13 ESQUINA BOULEVARD BENITO JUÁREZ SIN NÚMERO  BARRIO MACMANTIC ,30110,-92.19694444,16.1875,1380
CSSSA019225,0,0,1,0,1,SSA,7,CHIAPAS,2,SAN CRISTÓBAL DE LAS CASAS,26,CHENALHÓ,134,CHIXILTÓN,UNIDAD DE CONSULTA EXTERNA,RURAL DE 01 NÚCLEO BÁSICO,CENTRO DE SALUD MICROREGIONAL CHIXILTÓN,A UN COSTADO DE LA ESCUELA PRIMARIA    ,99999,-92.60361111,16.92527778,1960
CSSSA019300,0,0,1,0,1,SSA,7,CHIAPAS,2,SAN CRISTÓBAL DE LAS CASAS,38,HUIXTÁN,23,SAN ANDRÉS PUERTO RICO,UNIDAD DE CONSULTA EXTERNA,RURAL DE 01 NÚCLEO BÁSICO,CENTRO DE SALUD MICROREGIONAL SAN ANDRES PUERTO RICO,A UN COSTADO DE LA ESCUELA    ,29473,-92.4025,16.70166667,1820
CSSSA019464,0,0,1,0,1,SSA,7,CHIAPAS,2,SAN CRISTÓBAL DE LAS CASAS,26,CHENALHÓ,53,TZANEMBOLOM,UNIDAD DE CONSULTA EXTERNA,RURAL DE 01 NÚCLEO BÁSICO,CENTRO DE SALUD MICROREGIONAL  ZANEMBOLOM,A UN COSTADO DE LA AGENCIA MUNICIPAL    ,29876,-92.54,16.99805556,1160
CSSSA019732,0,0,1,0,1,SSA,7,CHIAPAS,9,OCOSINGO,31,CHILÓN,252,TZASIBILTIC,UNIDAD DE CONSULTA EXTERNA,RURAL DE 01 NÚCLEO BÁSICO,CENTRO DE SALUD MICROREGIONAL TZASIBILTIC,A UN COSTADO DE LA ESCUELA PRIMARIA 50 METROS ANTES    ,29940,-92.29305556,17.15083333,980
CSSSA020111,0,0,1,0,1,SSA,7,CHIAPAS,5,PICHUCALCO,67,PANTEPEC,29,SAN ISIDRO LAS BANDERAS,UNIDAD DE CONSULTA EXTERNA,RURAL DE 01 NÚCLEO BÁSICO,CENTRO DE SALUD MICROREGIONAL SAN ISIDRO LAS BANDERAS,A 100 METROS DE LA ESCUELA PRIMARIA GUADALUPE VICTORIA    ,29710,-93.05972222,17.23055556,1430
GTSSA000042,3,1,1,1,1,SSA,11,GUANAJUATO,6,IRAPUATO,1,ABASOLO,58,ESTACIÓN JOAQUÍN,UNIDAD DE CONSULTA EXTERNA,RURAL DE 03 NÚCLEOS BÁSICOS Y MÁS,ESTACIÓN JOAQUÍN-UMAPS,INSURGENTES SIN NÚMERO   ,36981,-101.5188889,20.56083333,1700
GTSSA000054,2,0,1,0.640319705,1,SSA,11,GUANAJUATO,6,IRAPUATO,1,ABASOLO,59,LA JOYA DE CALVILLO,UNIDAD DE CONSULTA EXTERNA,RURAL DE 02 NÚCLEOS BÁSICOS,JOYA DE CALVILLO-UMAPS,A UN COSTADO DE BODEGAS CONASUPO    ,36780,-101.6077778,20.74972222,1750
GTSSA000170,0,1,1,1,1,SSA,11,GUANAJUATO,4,ACÁMBARO,2,ACÁMBARO,17,CHUPÍCUARO (NUEVO CHUPÍCUARO),UNIDAD DE CONSULTA EXTERNA,RURAL DE 03 NÚCLEOS BÁSICOS Y MÁS,CHUPICUARO-UMAPS,MORELOS 59   ,38750,-100.6925,20.06888889,1910
GTSSA000194,1,1,1,1,1,SSA,11,GUANAJUATO,4,ACÁMBARO,2,ACÁMBARO,27,IRÁMUCO,UNIDAD DE CONSULTA EXTERNA,RURAL DE 03 NÚCLEOS BÁSICOS Y MÁS,IRAMUCO-UMAPS,EMILIANO ZAPATA SIN NÚMERO   ,38870,-100.9230556,19.965,1840
GTSSA000235,0,1,1,1,1,SSA,11,GUANAJUATO,4,ACÁMBARO,2,ACÁMBARO,42,LOS ÓRGANOS (LOS ÓRGANOS DE ABAJO),UNIDAD DE CONSULTA EXTERNA,RURAL DE 01 NÚCLEO BÁSICO,LOS ORGANOS-UMAPS,EMILIANO ZAPATA Y MORELOS SIN NÚMERO   ,38747,-100.8127778,20.05555556,1850
GTSSA000293,3,1,1,1,1,SSA,11,GUANAJUATO,4,ACÁMBARO,2,ACÁMBARO,92,SAN MATEO TÓCUARO,UNIDAD DE CONSULTA EXTERNA,RURAL DE 01 NÚCLEO BÁSICO,TOCUARO-UMAPS,ZARAGOZA SIN NÚMERO   ,38780,-100.7233333,19.96888889,2020
GTSSA000346,3,1,1,1,1,SSA,11,GUANAJUATO,2,SAN MIGUEL DE ALLENDE,3,SAN MIGUEL DE ALLENDE,7,ALCOCER,UNIDAD DE CONSULTA EXTERNA,RURAL DE 01 NÚCLEO BÁSICO,ALCOCER-UMAPS,REAL SIN NÚMERO   ,37700,-100.7041667,20.86972222,2110
GTSSA000416,2,1,1,1,1,SSA,11,GUANAJUATO,2,SAN MIGUEL DE ALLENDE,3,SAN MIGUEL DE ALLENDE,83,LA CRUZ DEL PALMAR,UNIDAD DE CONSULTA EXTERNA,RURAL DE 01 NÚCLEO BÁSICO,LA CRUZ DEL PALMAR-UMAPS,AVENIDA RENOVACION SIN NÚMERO   ,37700,-100.8427778,20.97027778,1860
GTSSA000474,0,0,1,0.19045572,1,SSA,11,GUANAJUATO,2,SAN MIGUEL DE ALLENDE,3,SAN MIGUEL DE ALLENDE,223,PUERTO DE NIETO,UNIDAD DE CONSULTA EXTERNA,RURAL DE 02 NÚCLEOS BÁSICOS,PUERTO DE NIETO-UMAPS,PRINCIPAL A UN COSTADO DE LA IGLESIA    ,37880,-100.5361111,20.89,2130
GTSSA000491,1,1,1,1,1,SSA,11,GUANAJUATO,2,SAN MIGUEL DE ALLENDE,3,SAN MIGUEL DE ALLENDE,291,SAN MIGUELITO,UNIDAD DE CONSULTA EXTERNA,RURAL DE 01 NÚCLEO BÁSICO,SAN MIGUELITO-UMAPS,NO DISPONIBLE    ,37700,-100.5852778,21.06027778,2010
GTSSA000503,3,1,1,1,1,SSA,11,GUANAJUATO,2,SAN MIGUEL DE ALLENDE,3,SAN MIGUEL DE ALLENDE,318,LA TALEGA,UNIDAD DE CONSULTA EXTERNA,RURAL DE 01 NÚCLEO BÁSICO,LA TALEGA-UMAPS,COLEGIO SIN NÚMERO   ,37700,-100.6833333,20.99055556,2100
GTSSA000544,2,1,1,1,1,SSA,11,GUANAJUATO,3,CELAYA,4,APASEO EL ALTO,24,EL ESPEJO (EX-HACIENDA DE ESPEJO),UNIDAD DE CONSULTA EXTERNA,RURAL DE 01 NÚCLEO BÁSICO,ESPEJO-UMAPS,EMILIANO ZAPATA SIN NÚMERO   ,38510,-100.5527778,20.44055556,1920
GTSSA000556,2,1,1,0.876492798,1,SSA,11,GUANAJUATO,3,CELAYA,4,APASEO EL ALTO,45,OJO DE AGUA DE LA TRINIDAD,UNIDAD DE CONSULTA EXTERNA,RURAL DE 01 NÚCLEO BÁSICO,OJO DE AGUA DE LA TRINIDAD-UMAPS,5 DE MAYO 5  BARRIO 1 ,38520,-100.6319444,20.39416667,2150
GTSSA000626,1,1,1,1,1,SSA,11,GUANAJUATO,3,CELAYA,5,APASEO EL GRANDE,19,IXTLA (SAN MIGUEL DE IXTLA),UNIDAD DE CONSULTA EXTERNA,RURAL DE 01 NÚCLEO BÁSICO,PUEBLO DE IXTLA-UMAPS,LEOPOLDO VAZQUEZ 65   ,38170,-100.5888889,20.65416667,1890
GTSSA000696,1,1,1,1,1,SSA,11,GUANAJUATO,3,CELAYA,5,APASEO EL GRANDE,53,EL TUNAL (LOS OLIVOS),UNIDAD DE CONSULTA EXTERNA,RURAL DE 01 NÚCLEO BÁSICO,EL TUNAL-UMAPS,JUAN ALVAREZ FRENTE A LA TELESECUNDARIA SIN NÚMERO   ,28161,-100.6180556,20.56694444,1790
GTSSA000824,0,1,1,0.99959892,1,SSA,11,GUANAJUATO,3,CELAYA,7,CELAYA,143,RINCÓN DE TAMAYO,UNIDAD DE CONSULTA EXTERNA,RURAL DE 03 NÚCLEOS BÁSICOS Y MÁS,RINCÓN DE TAMAYO-CAISES,HACIENDA DEL RINCON SIN NÚMERO   ,38150,-100.7552778,20.42277778,1790
GTSSA000841,2,1,1,1,1,SSA,11,GUANAJUATO,3,CELAYA,7,CELAYA,154,SAN ISIDRO CRESPO,UNIDAD DE CONSULTA EXTERNA,URBANO DE 02 NÚCLEOS BÁSICOS,SAN ISIDRO DE CRESPO (SAN ISIDRO)-UMAPS,PIPILA Y ÁLVARO OBREGON SIN NÚMERO   ,38110,-100.8855556,20.51472222,1740
GTSSA000853,3,1,1,0.86403966,0.86403966,SSA,11,GUANAJUATO,3,CELAYA,7,CELAYA,161,SAN JUAN DE LA VEGA,UNIDAD DE CONSULTA EXTERNA,RURAL DE 03 NÚCLEOS BÁSICOS Y MÁS,SAN JUAN DE LA VEGA-CAISES,ALDAMA 406   ,38100,-100.7608333,20.62611111,1770
GTSSA000940,0,0,1,0.015283189,1,SSA,11,GUANAJUATO,8,LEÓN DELTA,8,MANUEL DOBLADO,15,CALZADA DEL TEPOZÁN,UNIDAD DE CONSULTA EXTERNA,RURAL DE 01 NÚCLEO BÁSICO,CALZADA DE TEPOZAN-UMAPS,NUEVA CARRETERA CIUDAD M. DOBLADO-SAN PABLO KM. 5    ,36485,-101.8827778,20.73805556,1720
GTSSA001051,0,0,1,0.220972732,1,SSA,11,GUANAJUATO,3,CELAYA,9,COMONFORT,24,MORALES,UNIDAD DE CONSULTA EXTERNA,RURAL DE 03 NÚCLEOS BÁSICOS Y MÁS,RANCHO MORALES-UMAPS,ALDAMA 28   ,38214,-100.8083333,20.77888889,1800
GTSSA001075,0,0,1,0,1,SSA,11,GUANAJUATO,3,CELAYA,9,COMONFORT,35,POTRERO,UNIDAD DE CONSULTA EXTERNA,RURAL DE 02 NÚCLEOS BÁSICOS,EL POTRERO-UMAPS,MORELOS 12   ,38300,-100.6466667,20.75944444,1910
GTSSA001080,0,0,1,0.150169209,1,SSA,11,GUANAJUATO,3,CELAYA,9,COMONFORT,41,SAN ANTONIO DE CORRALES,UNIDAD DE CONSULTA EXTERNA,RURAL DE 02 NÚCLEOS BÁSICOS,SAN ANTONIO DE CORRALES-UMAPS,BENITO JUÁREZ 307   ,38200,-100.9638889,20.74555556,2000
GTSSA001092,0,0,1,0,1,SSA,11,GUANAJUATO,4,ACÁMBARO,10,CORONEO,1,CORONEO,UNIDAD DE CONSULTA EXTERNA,CENTROS DE SALUD CON SERVICIOS AMPLIADOS,CORONEO CESSA,ING. MARIANO GARCIA SELA 247   ,38590,-100.3644444,20.19861111,2270
GTSSA001145,2,1,1,1,1,SSA,11,GUANAJUATO,3,CELAYA,11,CORTAZAR,6,CAÑADA DE CARACHEO,UNIDAD DE CONSULTA EXTERNA,RURAL DE 02 NÚCLEOS BÁSICOS,CAÑADA DE CARACHEO-UMAPS,PLAZUELA PROVIDENCIA 48   ,38480,-100.9458333,20.37555556,1800
GTSSA001203,2,1,1,1,1,SSA,11,GUANAJUATO,3,CELAYA,11,CORTAZAR,54,TIERRA FRÍA,UNIDAD DE CONSULTA EXTERNA,RURAL DE 02 NÚCLEOS BÁSICOS,TIERRA FRÍA-UMAPS,5 DE MAYO 31   ,38480,-101.0388889,20.46222222,1720
GTSSA001256,0,1,1,1,1,SSA,11,GUANAJUATO,2,SAN MIGUEL DE ALLENDE,13,DOCTOR MORA,26,LOMA DE BUENAVISTA,UNIDAD DE CONSULTA EXTERNA,RURAL DE 01 NÚCLEO BÁSICO,LOMA DE BUENAVISTA-UMAPS,LUIS H. DUCOING SIN NÚMERO   ,37960,-100.3455556,21.17888889,2060
GTSSA001326,0,1,1,1,1,SSA,11,GUANAJUATO,1,GUANAJUATO,14,DOLORES HIDALGO CUNA DE LA INDEPENDENCIA NACIONAL,4,ADJUNTAS DEL RÍO,UNIDAD DE CONSULTA EXTERNA,RURAL DE 02 NÚCLEOS BÁSICOS,ADJUNTAS DEL RÍO-UMAPS,MORA 4   ,37800,-100.8669444,21.11972222,1900
GTSSA001355,0,1,1,1,1,SSA,11,GUANAJUATO,1,GUANAJUATO,14,DOLORES HIDALGO CUNA DE LA INDEPENDENCIA NACIONAL,125,JAMAICA (SAN MIGUEL DE JAMAICA),UNIDAD DE CONSULTA EXTERNA,RURAL DE 02 NÚCLEOS BÁSICOS,JAMAICA-UMAPS,AVENIDA INSURGENTES    ,37800,-100.7341667,21.14361111,1960
GTSSA001413,0,1,0,0.918842912,0.185616717,SSA,11,GUANAJUATO,1,GUANAJUATO,14,DOLORES HIDALGO CUNA DE LA INDEPENDENCIA NACIONAL,294,SAN MARCOS DE ABAJO,UNIDAD DE CONSULTA EXTERNA,RURAL DE 01 NÚCLEO BÁSICO,SAN MARCOS DE ABAJO-UMAPS,CAMINO SALIDA DE LA COMUNIDAD DEL SOTELO    ,37848,-101.0166667,21.02055556,2020
GTSSA001430,0,1,1,1,1,SSA,11,GUANAJUATO,1,GUANAJUATO,14,DOLORES HIDALGO CUNA DE LA INDEPENDENCIA NACIONAL,329,SOLEDAD NUEVA,UNIDAD DE CONSULTA EXTERNA,RURAL DE 01 NÚCLEO BÁSICO,SOLEDAD NUEVA-UMAPS,PRINCIPAL SIN NÚMERO   ,37810,-100.9222222,21.28,2000
GTSSA001541,0,1,1,0.986710966,0.992801785,SSA,11,GUANAJUATO,1,GUANAJUATO,15,GUANAJUATO,63,MINERAL DE LA LUZ,UNIDAD DE CONSULTA EXTERNA,RURAL DE 01 NÚCLEO BÁSICO,MINERAL DE LA LUZ-UMAPS,FRENTE A LA PLAZA (JARDÍN)    ,36200,-101.3380556,21.065,2400
GTSSA001594,3,1,1,1,1,SSA,11,GUANAJUATO,1,GUANAJUATO,15,GUANAJUATO,111,SANTA TERESA,UNIDAD DE CONSULTA EXTERNA,RURAL DE 02 NÚCLEOS BÁSICOS,SANTA TERESA-UMAPS,SAN MIGUEL ALLENDE SIN NÚMERO   ,36260,-101.3163889,20.965,1880
GTSSA001606,1,1,1,1,1,SSA,11,GUANAJUATO,1,GUANAJUATO,15,GUANAJUATO,115,LA SAUCEDA (SANTA FE DE GUADALUPE),UNIDAD DE CONSULTA EXTERNA,RURAL DE 02 NÚCLEOS BÁSICOS,SAUCEDA-UMAPS,CARRETERA GUANAJUATO-JUVENTINO ROSAS KM. 22    ,36860,-101.1913889,20.89833333,1930
GTSSA001635,3,1,1,1,1,SSA,11,GUANAJUATO,6,IRAPUATO,16,HUANÍMARO,14,MONTE BLANCO,UNIDAD DE CONSULTA EXTERNA,RURAL DE 02 NÚCLEOS BÁSICOS,MONTE BLANCO-UMAPS,JUNTO A LA ESCUELA PRIMARIA    ,36990,-101.5277778,20.35472222,1690
GTSSA001710,0,1,1,0.968507707,0.968507707,SSA,11,GUANAJUATO,6,IRAPUATO,17,IRAPUATO,82,CUCHICUATO,UNIDAD DE CONSULTA EXTERNA,RURAL DE 03 NÚCLEOS BÁSICOS Y MÁS,CUCHICUATO-UMAPS,TIJERINA SIN NÚMERO   ,36800,-101.4619444,20.66083333,1730
GTSSA001722,2,1,1,1,1,SSA,11,GUANAJUATO,6,IRAPUATO,17,IRAPUATO,95,ALDAMA,UNIDAD DE CONSULTA EXTERNA,RURAL DE 02 NÚCLEOS BÁSICOS,ALDAMA-UMAPS,JARDÍN HIDALGO SIN NÚMERO   ,36580,-101.3133333,20.81638889,1770
GTSSA001792,0,1,1,1,1,SSA,11,GUANAJUATO,6,IRAPUATO,17,IRAPUATO,137,SAN ANTONIO EL RICO,UNIDAD DE CONSULTA EXTERNA,RURAL DE 02 NÚCLEOS BÁSICOS,SAN ANTONIO EL RICO-UMAPS,FRENTE AL CAMPO DE FUTBOL    ,99999,-101.3727778,20.82361111,1740
GTSSA001891,0,1,1,1,1,SSA,11,GUANAJUATO,5,SALAMANCA,18,JARAL DEL PROGRESO,35,VICTORIA DE CORTAZAR,UNIDAD DE CONSULTA EXTERNA,URBANO DE 02 NÚCLEOS BÁSICOS,VICTORIA DE CORTAZAR-UMAPS,JOSÉ MARÍA MORELOS Y PAVON 101   ,38471,-101.0338889,20.33833333,1725
GTSSA001956,0,0,1,0,1,SSA,11,GUANAJUATO,4,ACÁMBARO,19,JERÉCUARO,23,LA ENREDADORA (EL JITOMATAL),UNIDAD DE CONSULTA EXTERNA,RURAL DE 01 NÚCLEO BÁSICO,LA ENRREDADORA-UMAPS,JUNTO AL KINDER    ,38555,-100.4866667,20.25194444,2150
GTSSA001985,2,0,1,0,1,SSA,11,GUANAJUATO,4,ACÁMBARO,19,JERÉCUARO,53,OJO DE AGUA DE MENDOZA,UNIDAD DE CONSULTA EXTERNA,RURAL DE 01 NÚCLEO BÁSICO,OJO DE AGUA DE MENDOZA-UMAPS,PRIVADA VICENTE GUERRERO 7   ,38540,-100.5644444,20.16666667,1990
GTSSA002014,1,0,1,0,1,SSA,11,GUANAJUATO,4,ACÁMBARO,19,JERÉCUARO,75,LA SABANILLA (SAN JOSÉ DE LA SABANILLA),UNIDAD DE CONSULTA EXTERNA,RURAL DE 01 NÚCLEO BÁSICO,LA SABANILLA-UMAPS,ENTRADA A TELESECUNDARIA    ,38553,-100.4108333,20.36527778,2160
GTSSA002422,2,1,1,1,1,SSA,11,GUANAJUATO,7,LEÓN,20,LEÓN,1,LEÓN DE LOS ALDAMA,UNIDAD DE CONSULTA EXTERNA,URBANO DE 10 NÚCLEOS BÁSICOS,LA FLORESTA-CAISES,PAKISTAN 404   ,37470,-101.6805556,21.11972222,1800
GTSSA002480,0,1,1,1,1,SSA,11,GUANAJUATO,7,LEÓN,20,LEÓN,263,ALFARO,UNIDAD DE CONSULTA EXTERNA,RURAL DE 03 NÚCLEOS BÁSICOS Y MÁS,ALFARO-UMAPS,PRINCIPAL SIN NÚMERO   ,37000,-101.6077778,21.15,1880
GTSSA002516,0,1,1,1,1,SSA,11,GUANAJUATO,7,LEÓN,20,LEÓN,319,LA ESTANCIA DE LA SANDÍA,UNIDAD DE CONSULTA EXTERNA,RURAL DE 02 NÚCLEOS BÁSICOS,LA SANDIA-UMAPS,EN LA PLAZA DE LA COMUNIDAD    ,37680,-101.6783333,20.9025,1770
GTSSA002620,2,1,1,1,1,SSA,11,GUANAJUATO,7,LEÓN,20,LEÓN,464,ÁLVARO OBREGÓN (SANTA ANA DEL CONDE),UNIDAD DE CONSULTA EXTERNA,RURAL DE 02 NÚCLEOS BÁSICOS,SANTA ANA DEL CONDE-UMAPS,CAMINO A SANTA ANA DEL CONDE 17   ,37680,-101.5788889,20.95638889,1790
GTSSA002656,0,1,1,0.991687238,1,SSA,11,GUANAJUATO,5,SALAMANCA,21,MOROLEÓN,1,MOROLEÓN,UNIDAD DE CONSULTA EXTERNA,URBANO DE 10 NÚCLEOS BÁSICOS,MOROLEÓN-CAISES,MANUEL DOBLADO 40  DEL VALLE ,38800,-101.19,20.12972222,1810
GTSSA002702,1,0,1,0,1,SSA,11,GUANAJUATO,1,GUANAJUATO,22,OCAMPO,30,LA ESCONDIDA,UNIDAD DE CONSULTA EXTERNA,RURAL DE 01 NÚCLEO BÁSICO,LA ESCONDIDA-UMAPS,ENTRADA A LA COMUNIDAD    ,37631,-101.5352778,21.6875,2180
GTSSA002743,0,0,1,0,1,SSA,11,GUANAJUATO,1,GUANAJUATO,22,OCAMPO,77,SANTA BÁRBARA,UNIDAD DE CONSULTA EXTERNA,RURAL DE 02 NÚCLEOS BÁSICOS,SANTA BÁRBARA-UMAPS,PLAZA CONSTITUCIÓN SIN NÚMERO   ,37642,-101.3777778,21.53861111,2220
GTSSA002772,0,1,1,1,1,SSA,11,GUANAJUATO,6,IRAPUATO,23,PÉNJAMO,25,BUENAVISTA DE CORTÉS,UNIDAD DE CONSULTA EXTERNA,RURAL DE 02 NÚCLEOS BÁSICOS,BUENAVISTA DE CORTES-UMAPS,FIDENCIO ÁVILA SIN NÚMERO   ,36940,-101.8708333,20.37472222,1700
GTSSA002801,0,1,1,1,1,SSA,11,GUANAJUATO,6,IRAPUATO,23,PÉNJAMO,54,CERRITOS BLANCOS,UNIDAD DE CONSULTA EXTERNA,RURAL DE 02 NÚCLEOS BÁSICOS,CERRITOS BLANCOS-UMAPS,A UN LADO DEL TALLER DE COSTURA    ,36942,-101.9,20.23833333,1670
GTSSA002830,3,1,1,1,1,SSA,11,GUANAJUATO,6,IRAPUATO,23,PÉNJAMO,72,CORRALEJO DE HIDALGO,UNIDAD DE CONSULTA EXTERNA,RURAL DE 01 NÚCLEO BÁSICO,CORRALEJO DE HIDALGO-UMAPS,FRENTE A LA IGLESIA    ,36921,-101.6297222,20.50944444,1710
GTSSA002900,0,1,1,1,1,SSA,11,GUANAJUATO,6,IRAPUATO,23,PÉNJAMO,194,ORDEÑITA DE BARAJAS,UNIDAD DE CONSULTA EXTERNA,RURAL DE 02 NÚCLEOS BÁSICOS,ORDEÑA DE BARAJAS-UMAPS,JUNTO AL JARDÍN DE NIÑOS    ,36955,-101.6744444,20.34833333,1700
GTSSA002941,2,0,1,0.404083192,1,SSA,11,GUANAJUATO,6,IRAPUATO,23,PÉNJAMO,221,POTREROS,UNIDAD DE CONSULTA EXTERNA,RURAL DE 01 NÚCLEO BÁSICO,POTREROS-UMAPS,JUNTO A CARRETERA LA HERRADURA    ,36955,-101.6583333,20.25666667,1700
GTSSA002970,0,1,1,1,0.718957603,SSA,11,GUANAJUATO,6,IRAPUATO,23,PÉNJAMO,261,SAN ANTONIO DE ACEVES,UNIDAD DE CONSULTA EXTERNA,RURAL DE 02 NÚCLEOS BÁSICOS,SAN ANTONIO DE ACEVES-UMAPS,JUNTO AL KINDER    ,36900,-101.9486111,20.49972222,1720
GTSSA003052,0,1,1,1,1,SSA,11,GUANAJUATO,6,IRAPUATO,24,PUEBLO NUEVO,1,PUEBLO NUEVO,UNIDAD DE CONSULTA EXTERNA,URBANO DE 02 NÚCLEOS BÁSICOS,PUEBLO NUEVO-UMAPS,5 DE MAYO 329   ,36890,-101.3733333,20.52694444,1700
GTSSA003105,1,0,1,0,1,SSA,11,GUANAJUATO,8,LEÓN DELTA,25,PURÍSIMA DEL RINCÓN,20,JALPA DE CÁNOVAS,UNIDAD DE CONSULTA EXTERNA,RURAL DE 02 NÚCLEOS BÁSICOS,JALPA DE CANOVAS-UMAPS,A UN LADO DE LA ESCUELA PRIMARIA (SAN ANDERS)    ,36430,-101.9819444,20.88027778,1740
GTSSA003204,0,1,1,0.928693891,1,SSA,11,GUANAJUATO,8,LEÓN DELTA,26,ROMITA,34,MONTE DE HOYOS,UNIDAD DE CONSULTA EXTERNA,RURAL DE 02 NÚCLEOS BÁSICOS,MONTE DE HOYOS-UMAPS,MANZANARES SIN NÚMERO   ,36207,-101.6597222,20.81388889,1750
GTSSA003274,3,1,1,1,1,SSA,11,GUANAJUATO,5,SALAMANCA,27,SALAMANCA,46,CERRO GORDO (SAN RAFAEL),UNIDAD DE CONSULTA EXTERNA,RURAL DE 02 NÚCLEOS BÁSICOS,CERRO GORDO-UMAPS,RUBÉN DARIO 25   ,36860,-101.1266667,20.59305556,1720
GTSSA003303,3,1,1,1,1,SSA,11,GUANAJUATO,5,SALAMANCA,27,SALAMANCA,,LA ORDEÑA,UNIDAD DE CONSULTA EXTERNA,RURAL DE 02 NÚCLEOS BÁSICOS,LA ORDEÑA-UMAPS,SALIDA A MARY GOMEZ    ,36856,-101.1183333,20.69055556,1810
GTSSA003414,0,1,1,1,1,SSA,11,GUANAJUATO,4,ACÁMBARO,28,SALVATIERRA,14,SAN MIGUEL EMÉNGUARO,UNIDAD DE CONSULTA EXTERNA,RURAL DE 02 NÚCLEOS BÁSICOS,SAN MIGUEL EMENGUARO-UMAPS,JAIME NUNO 1   ,38900,-100.8852778,20.16361111,1800
GTSSA003501,2,1,1,1,1,SSA,11,GUANAJUATO,4,ACÁMBARO,28,SALVATIERRA,58,SAN NICOLÁS DE LOS AGUSTINOS,UNIDAD DE CONSULTA EXTERNA,RURAL DE 03 NÚCLEOS BÁSICOS Y MÁS,SAN NICOLÁS DE LOS AGUSTÍNOS-UMAPS,10 DE MAYO 2   ,38930,-100.9663889,20.24777778,1740
GTSSA003525,3,1,1,1,1,SSA,11,GUANAJUATO,4,ACÁMBARO,28,SALVATIERRA,60,SAN PEDRO DE LOS NARANJOS,UNIDAD DE CONSULTA EXTERNA,RURAL DE 02 NÚCLEOS BÁSICOS,SAN PEDRO DE LOS NARANJOS-UMAPS,CORREGIDORA ESQUINA CON CARRETERA SALVATIERRA-YURRIRIA    ,38931,-100.9386111,20.22722222,1750
GTSSA003583,1,0,1,0.122868903,1,SSA,11,GUANAJUATO,1,GUANAJUATO,29,SAN DIEGO DE LA UNIÓN,103,SAN JUAN PAN DE ARRIBA,UNIDAD DE CONSULTA EXTERNA,RURAL DE 01 NÚCLEO BÁSICO,SAN JUAN PAN DE ARRIBA-UMAPS,AVENIDA CENTRAL 6   ,37860,-100.9213889,21.46861111,2120
GTSSA003595,0,1,1,1,1,SSA,11,GUANAJUATO,1,GUANAJUATO,29,SAN DIEGO DE LA UNIÓN,120,LA SAUCEDA,UNIDAD DE CONSULTA EXTERNA,RURAL DE 02 NÚCLEOS BÁSICOS,LA SAUCEDA-UMAPS,FRENTE AL CAMPO DE FUTBOL    ,37850,-100.7208333,21.48861111,2060
GTSSA003641,3,0,0,0.66808939,0.66808939,SSA,11,GUANAJUATO,1,GUANAJUATO,30,SAN FELIPE,110,JARAL DE BERRIOS,UNIDAD DE CONSULTA EXTERNA,RURAL DE 02 NÚCLEOS BÁSICOS,JARAL DE BERRÍO-UMAPS,HIDALGO 4   ,37611,-101.0138889,21.68111111,1850
GTSSA003653,0,0,1,0,1,SSA,11,GUANAJUATO,1,GUANAJUATO,30,SAN FELIPE,118,LA LABOR,UNIDAD DE CONSULTA EXTERNA,RURAL DE 01 NÚCLEO BÁSICO,LA LABOR-UMAPS,FRENTE A LA PARROQUIA SIN NÚMERO   ,37612,-101.0711111,21.30916667,1980
GTSSA003665,1,0,1,0.12837708,0.99578464,SSA,11,GUANAJUATO,1,GUANAJUATO,30,SAN FELIPE,120,LAGUNA DE GUADALUPE,UNIDAD DE CONSULTA EXTERNA,RURAL DE 02 NÚCLEOS BÁSICOS,LAGUNA DE GUADALUPE-UMAPS,AVENIDA GUADALUPE 30   ,37610,-101.3569444,21.80083333,2220
GTSSA003694,0,0,1,0,1,SSA,11,GUANAJUATO,1,GUANAJUATO,30,SAN FELIPE,141,FÁBRICA DE MELCHOR,UNIDAD DE CONSULTA EXTERNA,RURAL DE 02 NÚCLEOS BÁSICOS,FABRICA DE MELCHOR-UMAPS,ZAPATA 6   ,37611,-100.9,21.67444444,1940
GTSSA003735,0,0,1,0,0.98305738,SSA,11,GUANAJUATO,1,GUANAJUATO,30,SAN FELIPE,233,SAN JUAN DE LLANOS,UNIDAD DE CONSULTA EXTERNA,RURAL DE 01 NÚCLEO BÁSICO,SAN JUAN DE LLANOS-UMAPS,PRINCIPAL SIN NÚMERO   ,37620,-101.3152778,21.27777778,2160
GTSSA003752,0,0,1,0,1,SSA,11,GUANAJUATO,1,GUANAJUATO,30,SAN FELIPE,251,SANTA ROSA,UNIDAD DE CONSULTA EXTERNA,RURAL DE 02 NÚCLEOS BÁSICOS,SANTA ROSA-UMAPS,FRENTE A LA BODEGA CONASUPO    ,37612,-101.0919444,21.55194444,1900
GTSSA003863,0,1,1,1,1,SSA,11,GUANAJUATO,8,LEÓN DELTA,31,SAN FRANCISCO DEL RINCÓN,65,SAN IGNACIO DE HIDALGO,UNIDAD DE CONSULTA EXTERNA,RURAL DE 02 NÚCLEOS BÁSICOS,SAN IGNACIO DE HIDALGO-UMAPS,IGNACIO ALLENDE 100   ,36450,-101.8608333,20.91194444,1740
GTSSA003962,0,1,1,1,1,SSA,11,GUANAJUATO,2,SAN MIGUEL DE ALLENDE,32,SAN JOSÉ ITURBIDE,61,OJO DE AGUA DEL REFUGIO,UNIDAD DE CONSULTA EXTERNA,RURAL DE 02 NÚCLEOS BÁSICOS,OJO DE AGUA DEL REFUGIO-UMAPS,JUAN JOSÉ TORRESLANDA SIN NÚMERO   ,37980,-100.3180556,21.01527778,2200
GTSSA003974,0,1,1,1,1,SSA,11,GUANAJUATO,2,SAN MIGUEL DE ALLENDE,32,SAN JOSÉ ITURBIDE,74,PUERTO DE CARROZA,UNIDAD DE CONSULTA EXTERNA,RURAL DE 01 NÚCLEO BÁSICO,PUERTO CARROZA-UMAPS,ALCANFORES SIN NÚMERO   ,37980,-100.4072222,20.8975,2135
GTSSA004032,0,1,1,1,1,SSA,11,GUANAJUATO,2,SAN MIGUEL DE ALLENDE,33,SAN LUIS DE LA PAZ,29,LA CIÉNEGA,UNIDAD DE CONSULTA EXTERNA,RURAL DE 01 NÚCLEO BÁSICO,LA CIÉNEGA-UMAPS,ENTRE EL JARDIN DE NIÑOS Y LA ESCUELA PRIMARIA    ,37900,-100.4805556,21.30083333,2050
GTSSA004061,2,1,1,1,1,SSA,11,GUANAJUATO,2,SAN MIGUEL DE ALLENDE,33,SAN LUIS DE LA PAZ,85,LOURDES (ESTACIÓN DE LOURDES),UNIDAD DE CONSULTA EXTERNA,RURAL DE 01 NÚCLEO BÁSICO,LOURDES (ESTACIÓN DE LOURDES)-UMAPS,ENTRE EL CAMPO DE FUTBOL Y EL CAMINO A CATALAN    ,37911,-100.7030556,21.29,1990
GTSSA004085,0,0,0,0.299894392,0.305966198,SSA,11,GUANAJUATO,2,SAN MIGUEL DE ALLENDE,33,SAN LUIS DE LA PAZ,149,SAN PEDRO DE LOS POZOS (MINERAL DE POZOS),UNIDAD DE CONSULTA EXTERNA,RURAL DE 02 NÚCLEOS BÁSICOS,MINERAL DE SAN PEDRO (MINERAL DE POZOS)-UMAPS,PROLONGACIÓN CENTENARIO SIN NÚMERO   ,37910,-100.4938889,21.22388889,2200
GTSSA004126,1,1,1,0.994242668,1,SSA,11,GUANAJUATO,2,SAN MIGUEL DE ALLENDE,33,SAN LUIS DE LA PAZ,192,SAN ISIDRO,UNIDAD DE CONSULTA EXTERNA,RURAL DE 01 NÚCLEO BÁSICO,SAN ISIDRO-UMAPS,ENTRE EL TEMPLO Y LA EXHACIENDA    ,37900,-100.5483333,21.37194444,2050
GTSSA004184,3,0,1,0,1,SSA,11,GUANAJUATO,2,SAN MIGUEL DE ALLENDE,34,SANTA CATARINA,1,SANTA CATARINA,UNIDAD DE CONSULTA EXTERNA,CENTROS DE SALUD CON SERVICIOS AMPLIADOS,SANTA CATARINA CESSA,MATAMOROS 22   ,37950,-100.0680556,21.14,1560
GTSSA004254,2,0,0,0,0,SSA,11,GUANAJUATO,3,CELAYA,35,SANTA CRUZ DE JUVENTINO ROSAS,53,RINCÓN DE CENTENO,UNIDAD DE CONSULTA EXTERNA,RURAL DE 01 NÚCLEO BÁSICO,RINCÓN DE CENTENO-UMAPS,DEL CALVARIO 1   ,38240,-100.8847222,20.66111111,1850
GTSSA004324,0,1,1,1,1,SSA,11,GUANAJUATO,8,LEÓN DELTA,37,SILAO DE LA VICTORIA,4,LA ALDEA,UNIDAD DE CONSULTA EXTERNA,RURAL DE 03 NÚCLEOS BÁSICOS Y MÁS,LA ALDEA-UMAPS,MIGUEL ALEMAN ESQUINA LEONA VICARIO SIN NÚMERO   ,36280,-101.4786111,20.90138889,1760
GTSSA004353,3,1,1,1,1,SSA,11,GUANAJUATO,8,LEÓN DELTA,37,SILAO DE LA VICTORIA,24,COMANJILLA,UNIDAD DE CONSULTA EXTERNA,RURAL DE 02 NÚCLEOS BÁSICOS,COMANJILLA-UMAPS,SAN RAFAEL SIN NÚMERO   ,36270,-101.4736111,21.0675,1890
GTSSA004423,0,1,1,1,1,SSA,11,GUANAJUATO,4,ACÁMBARO,38,TARANDACUAO,1,TARANDACUAO,UNIDAD DE CONSULTA EXTERNA,CENTROS DE SALUD CON SERVICIOS AMPLIADOS,TARANDACUAO CESSA,5 DE MAYO 113   ,38790,-100.5186111,20.00305556,1930
GTSSA004505,1,1,1,1,1,SSA,11,GUANAJUATO,3,CELAYA,39,TARIMORO,15,LOS FIERROS,UNIDAD DE CONSULTA EXTERNA,RURAL DE 01 NÚCLEO BÁSICO,LOS FIERROS-UMAPS,AVENIDA CAMINO REAL 15   ,38700,-100.7597222,20.19416667,1970
GTSSA004551,1,1,1,1,1,SSA,11,GUANAJUATO,3,CELAYA,39,TARIMORO,22,LA MONCADA,UNIDAD DE CONSULTA EXTERNA,RURAL DE 03 NÚCLEOS BÁSICOS Y MÁS,LA MONCADA-UMAPS,DONACIANO FRANCO SIN NÚMERO   ,38720,-100.805,20.28472222,1755
GTSSA004633,1,1,1,0.476072311,1,SSA,11,GUANAJUATO,2,SAN MIGUEL DE ALLENDE,40,TIERRA BLANCA,38,RINCÓN DEL CANO,UNIDAD DE CONSULTA EXTERNA,RURAL DE 01 NÚCLEO BÁSICO,RINCÓN DEL CANO-UMAPS,CERCA DE LA ESCUELA PRIMARIA    ,37970,-100.2413889,21.0575,1900
GTSSA004662,2,1,1,1,1,SSA,11,GUANAJUATO,5,SALAMANCA,41,URIANGATO,1,URIANGATO,UNIDAD DE CONSULTA EXTERNA,URBANO DE 12 NÚCLEOS BÁSICOS Y MÁS,URIANGATO-CAISES,5 DE MAYO ESQUINA JUAN ESCUTIA    ,38980,-101.1797222,20.13888889,1800
GTSSA004744,0,1,1,0.869011521,1,SSA,11,GUANAJUATO,5,SALAMANCA,42,VALLE DE SANTIAGO,25,CHARCO DE PANTOJA,UNIDAD DE CONSULTA EXTERNA,RURAL DE 02 NÚCLEOS BÁSICOS,CHARCO DE PANTOJA-UMAPS,FRANCISCO I. MADERO 3   ,38440,-101.3541667,20.39027778,1720
GTSSA004756,0,0,0,0.207522124,0.281858414,SSA,11,GUANAJUATO,5,SALAMANCA,42,VALLE DE SANTIAGO,43,LAS JÍCAMAS,UNIDAD DE CONSULTA EXTERNA,RURAL DE 01 NÚCLEO BÁSICO,LAS JICAMAS-UMAPS,16 DE SEPTIEMBRE FRENTE A LA IGLESIA SIN NÚMERO   ,38463,-101.3580556,20.27833333,1850
GTSSA004773,2,1,1,1,1,SSA,11,GUANAJUATO,5,SALAMANCA,42,VALLE DE SANTIAGO,57,MOGOTES DE SAN JOSÉ PARANGUEO,UNIDAD DE CONSULTA EXTERNA,RURAL DE 03 NÚCLEOS BÁSICOS Y MÁS,MOGOTES DE SAN JOSÉ PARANGUEO-UMAPS,AVENIDA 24 DE JUNIO SIN NÚMERO   ,38420,-101.3019444,20.415,1715
GTSSA004831,0,0,0,0,0.622330248,SSA,11,GUANAJUATO,2,SAN MIGUEL DE ALLENDE,43,VICTORIA,1,VICTORIA,UNIDAD DE CONSULTA EXTERNA,RURAL DE 03 NÚCLEOS BÁSICOS Y MÁS,VICTORIA-UMAPS,JUÁREZ 2   ,37920,-100.2144444,21.21222222,1740
GTSSA005164,0,1,1,1,1,SSA,11,GUANAJUATO,5,SALAMANCA,46,YURIRIA,29,LOMA DE ZEMPOALA,UNIDAD DE CONSULTA EXTERNA,RURAL DE 02 NÚCLEOS BÁSICOS,LOMA DE ZEMPOALA-UMAPS,HIDALGO 98   ,38949,-101.0788889,20.29138889,1730
GTSSA005176,0,0,1,0.788815022,1,SSA,11,GUANAJUATO,5,SALAMANCA,46,YURIRIA,35,MONTE DE LOS JUÁREZ,UNIDAD DE CONSULTA EXTERNA,RURAL DE 01 NÚCLEO BÁSICO,MONTE DE LOS JUÁREZ-UMAPS,JUNTO AL JARDÍN DE NIÑOS Y CAMPO DE BEISBOOL    ,38950,-101.2508333,20.18416667,1730
GTSSA005205,0,0,1,0.547632635,1,SSA,11,GUANAJUATO,5,SALAMANCA,46,YURIRIA,76,SANTA MÓNICA OZUMBILLA,UNIDAD DE CONSULTA EXTERNA,RURAL DE 01 NÚCLEO BÁSICO,SANTA MONICA OZUMBILLA-UMAPS,16 DE SEPTIEMBRE SIN NÚMERO   ,38969,-101.2777778,20.14555556,1780
GTSSA005210,3,0,1,0,1,SSA,11,GUANAJUATO,5,SALAMANCA,46,YURIRIA,86,TEJOCOTE DE CALERA,UNIDAD DE CONSULTA EXTERNA,RURAL DE 01 NÚCLEO BÁSICO,TEJOCOTE DE CALERA-UMAPS,FRANCISCO VILLA 1   ,38960,-101.3961111,20.18111111,1900
GTSSA005263,2,1,1,1,1,SSA,11,GUANAJUATO,6,IRAPUATO,17,IRAPUATO,160,SAN NICOLÁS TEMASCATÍO,UNIDAD DE CONSULTA EXTERNA,RURAL DE 01 NÚCLEO BÁSICO,SAN NICOLÁS TEMAZCATIO-UMAPS,DOMICILIO CONOCIDO    ,99999,-101.2472222,20.72472222,1770
GTSSA005304,0,1,1,1,1,SSA,11,GUANAJUATO,6,IRAPUATO,23,PÉNJAMO,371,GUANGÜITIRO,UNIDAD DE CONSULTA EXTERNA,RURAL DE 01 NÚCLEO BÁSICO,GUANGUITIRO-UMAPS,A UN COSTADO DEL CAMPO DE FUT-BOL    ,99999,-101.7713889,20.44277778,1850
GTSSA005403,3,1,1,1,1,SSA,11,GUANAJUATO,7,LEÓN,20,LEÓN,975,LA ERMITA,UNIDAD DE CONSULTA EXTERNA,URBANO DE 04 NÚCLEOS BÁSICOS,LA ERMITA-UMAPS,LACONIA ESQUINA HADES 201   ,37358,-101.7330556,21.15194444,2005
GTSSA016743,0,1,1,1,1,SSA,11,GUANAJUATO,7,LEÓN,20,LEÓN,785,CENTRO FAMILIAR LA SOLEDAD,UNIDAD DE CONSULTA EXTERNA,URBANO DE 04 NÚCLEOS BÁSICOS,BALCONES DE LA JOYA-UMAPS,PRIVADA BALCÓN DE LOS RUISEÑORES 104  BALCONES DE LA JOYA ,37355,-101.7497222,21.135,1930
GTSSA016755,0,1,1,1,1,SSA,11,GUANAJUATO,3,CELAYA,5,APASEO EL GRANDE,15,ESTANCIA DEL LLANO (SAN JOSÉ DEL LLANO),UNIDAD DE CONSULTA EXTERNA,RURAL DE 01 NÚCLEO BÁSICO,ESTANCIA DEL LLANO-UMAPS,CAMINO A SAN JOSE DEL LLANO SIN NÚMERO   ,38160,-100.7263889,20.51111111,1760
GTSSA016784,3,1,1,1,1,SSA,11,GUANAJUATO,1,GUANAJUATO,29,SAN DIEGO DE LA UNIÓN,69,POZO ADEMADO,UNIDAD DE CONSULTA EXTERNA,RURAL DE 01 NÚCLEO BÁSICO,POZO ADEMADO-UMAPS,PRINCIPAL JUNTO A LA ESCUELA PRIMARIA SIN NÚMERO   ,37813,-100.8033333,21.33194444,1940
GTSSA016801,0,0,1,0.307436645,1,SSA,11,GUANAJUATO,2,SAN MIGUEL DE ALLENDE,3,SAN MIGUEL DE ALLENDE,376,SAN JOSÉ DE ALLENDE,UNIDAD DE CONSULTA EXTERNA,RURAL DE 01 NÚCLEO BÁSICO,SAN JOSÉ DE ALLENDE-UMAPS,ATRAS DE LA ESCUELA PRIMARIA    ,37700,-101.0322222,20.86083333,2100
GTSSA016866,0,1,1,1,1,SSA,11,GUANAJUATO,5,SALAMANCA,27,SALAMANCA,1,SALAMANCA,UNIDAD DE CONSULTA EXTERNA,URBANO DE 04 NÚCLEOS BÁSICOS,JARDINES DEL SOL-UMAPS,MATAMOROS 1417   ,36750,-101.1972222,20.57027778,1720
GTSSA016871,1,1,1,1,1,SSA,11,GUANAJUATO,5,SALAMANCA,27,SALAMANCA,87,LOMA PELADA,UNIDAD DE CONSULTA EXTERNA,RURAL DE 02 NÚCLEOS BÁSICOS,LOMA DE SAN ANTONIO-UMAPS,REFORMA ESQUINA INDEPENDENCIA    ,36790,-101.2941667,20.57222222,1710
GTSSA017373,0,1,1,1,1,SSA,11,GUANAJUATO,8,LEÓN DELTA,31,SAN FRANCISCO DEL RINCÓN,1,SAN FRANCISCO DEL RINCÓN,UNIDAD DE CONSULTA EXTERNA,URBANO DE 07 NÚCLEOS BÁSICOS,SAN FRANCISCO DEL RINCÓN-CAISES,AVENIDA PANAMA ESQUINA PEDRO NICOLAS   SAN MIGUEL ,36360,-101.8577778,21.01833333,1750
GTSSA017484,1,1,1,1,1,SSA,11,GUANAJUATO,6,IRAPUATO,23,PÉNJAMO,288,SANTA ANA PACUECO,UNIDAD DE CONSULTA EXTERNA,CENTROS DE SALUD CON SERVICIOS AMPLIADOS,SANTA ANA PACUECO - CESSA,AVENIDA VILLAGRAN ENTRE COMONFORT Y VILLAS DE SAN JUAN SIN NÚMERO   ,36910,-102.0158333,20.34722222,1670
HGIMO000083,0,0,1,0,1,IMSS-PROSPERA,13,HIDALGO,13,OTOMÍ TEPEHUA,2,ACAXOCHITLÁN,16,TEPEPA (SANTIAGO TEPEPA),UNIDAD DE CONSULTA EXTERNA,NO ESPECIFICADO,TEPEPA (SANTIAGO TEPEPA),DOMICILIO CONOCIDO    ,43730,-98.17888889,20.125,2280
HGIMO000730,0,0,1,0.044542033,1,IMSS-PROSPERA,13,HIDALGO,4,HUICHAPAN,29,HUICHAPAN,3,COLONIA GUADALUPE EL ASTILLERO,UNIDAD DE CONSULTA EXTERNA,NO ESPECIFICADO,COLONIA GUADALUPE EL ASTILLERO,DOMICILIO CONOCIDO    ,42412,-99.55305556,20.32972222,2550
HGIMO000783,0,0,1,0,1,IMSS-PROSPERA,13,HIDALGO,6,IXMIQUILPAN,30,IXMIQUILPAN,8,CAPULA,UNIDAD DE CONSULTA EXTERNA,NO ESPECIFICADO,CAPULA (IXMIQUILPAN),DOMICILIO CONOCIDO    ,42325,-99.13805556,20.50861111,1780
HGIMO000940,0,0,1,0,0.241174802,IMSS-PROSPERA,13,HIDALGO,9,MOLANGO,34,LOLOTLA,34,XUCHITLÁN,UNIDAD DE CONSULTA EXTERNA,NO ESPECIFICADO,XUCHITLÁN (LOLOTLA),DOMICILIO CONOCIDO    ,43143,-98.74388889,21.06388889,640
HGIMO001133,3,0,1,0,1,IMSS-PROSPERA,13,HIDALGO,9,MOLANGO,42,MOLANGO DE ESCAMILLA,9,IXCATLÁN (SAN PEDRO),UNIDAD DE CONSULTA EXTERNA,NO ESPECIFICADO,IXCATLÁN (SAN PEDRO),DOMICILIO CONOCIDO    ,43110,-98.81583333,20.93,940
HGIMO001285,1,0,1,0,1,IMSS-PROSPERA,13,HIDALGO,5,ZIMAPÁN,47,PACULA,1,PACULA,UNIDAD DE CONSULTA EXTERNA,NO ESPECIFICADO,PACULA,DOMICILIO CONOCIDO    ,42240,-99.29583333,21.05055556,1300
HGIMO001326,3,0,1,0,1,IMSS-PROSPERA,13,HIDALGO,16,JACALA,49,PISAFLORES,29,LAS MORAS,UNIDAD DE CONSULTA EXTERNA,NO ESPECIFICADO,LAS MORAS (PISAFLORES),DOMICILIO CONOCIDO    ,42223,-98.94638889,21.28444444,400
HGIMO001425,1,0,1,0,1,IMSS-PROSPERA,13,HIDALGO,7,ACTOPAN,54,SAN SALVADOR,1,SAN SALVADOR,UNIDAD DE CONSULTA EXTERNA,NO ESPECIFICADO,SAN SALVADOR,DOMICILIO CONOCIDO    ,42640,-99.01361111,20.28388889,1940
HGIMO001850,3,0,1,0,1,IMSS-PROSPERA,13,HIDALGO,9,MOLANGO,73,TLANCHINOL,5,APANTLAZOL,UNIDAD DE CONSULTA EXTERNA,NO ESPECIFICADO,APANTLAZOL,DOMICILIO CONOCIDO    ,43154,-98.58333333,20.98916667,1380
HGIMO001944,0,0,1,0.648966432,0.962260544,IMSS-PROSPERA,13,HIDALGO,10,HUEJUTLA,78,XOCHIATIPAN,2,ACANOA,UNIDAD DE CONSULTA EXTERNA,NO ESPECIFICADO,ACANOA,DOMICILIO CONOCIDO    ,43092,-98.26888889,20.79666667,560
HGIMO002130,0,0,1,0,0.850441873,IMSS-PROSPERA,13,HIDALGO,5,ZIMAPÁN,84,ZIMAPÁN,19,DURANGO,UNIDAD DE CONSULTA EXTERNA,NO ESPECIFICADO,DURANGO,DOMICILIO CONOCIDO    ,42340,-99.23,20.89472222,2080
HGSSA000050,1,1,1,1,1,SSA,13,HIDALGO,15,ATOTONILCO,1,ACATLÁN,27,COLONIA 28 DE MAYO (SANTA ROSA),UNIDAD DE CONSULTA EXTERNA,RURAL DE 01 NÚCLEO BÁSICO,COL. 28 DE MAYO SANTA ROSA,AGUSTIN OLVERA SIN NÚMERO   ,43540,-98.38972222,20.16638889,2120
HGSSA000086,2,0,1,0,1,SSA,13,HIDALGO,13,OTOMÍ TEPEHUA,2,ACAXOCHITLÁN,7,LOS REYES,UNIDAD DE CONSULTA EXTERNA,RURAL DE 01 NÚCLEO BÁSICO,LOS REYES,FRENTE A LA FARMACIA SIN NÚMERO  BARRIO NÚMERO 8 ,43720,-98.16444444,20.15472222,2220
HGSSA000202,2,0,1,0,1,SSA,13,HIDALGO,7,ACTOPAN,3,ACTOPAN,10,CHICAVASCO,UNIDAD DE CONSULTA EXTERNA,RURAL DE 01 NÚCLEO BÁSICO,CHICAVASCO,PLAZA JUÁREZ SIN NÚMERO   ,42500,-98.95361111,20.19611111,2060
HGSSA000255,0,0,1,0,1,SSA,13,HIDALGO,7,ACTOPAN,3,ACTOPAN,23,SAN ANDRÉS TIANGUISTENGO,UNIDAD DE CONSULTA EXTERNA,RURAL DE 01 NÚCLEO BÁSICO,SAN ANDRÉS TIANGUISTENGO,A UN LADO DEL PANTEON MANZANA 1   ,42500,-98.84944444,20.26916667,2400
HGSSA000284,1,1,1,1,1,SSA,13,HIDALGO,13,OTOMÍ TEPEHUA,4,AGUA BLANCA DE ITURBIDE,10,EJIDO DE PALIZAR,UNIDAD DE CONSULTA EXTERNA,RURAL DE 01 NÚCLEO BÁSICO,EJIDO DE PALIZAR,CARRETERA AGUA BLANCA-EJIDO PALIZAR    ,43460,-98.41416667,20.34666667,2220
HGSSA000296,0,0,1,0,1,SSA,13,HIDALGO,14,TEPEJI,5,AJACUBA,1,AJACUBA,UNIDAD DE CONSULTA EXTERNA,RURAL DE 03 NÚCLEOS BÁSICOS Y MÁS,AJACUBA,NULL,42150,-99.12222222,20.09194444,2160
HGSSA000342,3,0,1,0,1,SSA,13,HIDALGO,6,IXMIQUILPAN,6,ALFAJAYUCAN,31,SAN FRANCISCO SACACHICHILCO,UNIDAD DE CONSULTA EXTERNA,RURAL DE 01 NÚCLEO BÁSICO,SAN FRANCISCO SACACHICHILCO,PLAZUELA PRINCIPAL CERCANO AL RUEDO    ,42390,-99.39027778,20.47583333,1750
HGSSA000354,1,0,1,0,1,SSA,13,HIDALGO,6,IXMIQUILPAN,6,ALFAJAYUCAN,33,SAN PABLO OXTOTIPAN,UNIDAD DE CONSULTA EXTERNA,RURAL DE 01 NÚCLEO BÁSICO,SAN PABLO OXTOTIPAN,CAMINO REAL A ALFAJAYUCAN    ,42390,-99.37666667,20.33527778,2040
HGSSA000371,0,0,1,0,1,SSA,13,HIDALGO,11,APAN,7,ALMOLOYA,1,ALMOLOYA,UNIDAD DE CONSULTA EXTERNA,RURAL DE 02 NÚCLEOS BÁSICOS,ALMOLOYA,HIDALGO 2  CENTRO ,43940,-98.40305556,19.70305556,2530
HGSSA000540,0,0,1,0,1,SSA,13,HIDALGO,10,HUEJUTLA,11,ATLAPEXCO,16,HUITZOTLACO,UNIDAD DE CONSULTA EXTERNA,RURAL DE 01 NÚCLEO BÁSICO,HUITZOTLACO,PLAZA PRINCIPAL SIN NÚMERO   ,43060,-98.37694444,21.04027778,180
HGSSA000581,3,0,1,0,1,SSA,13,HIDALGO,15,ATOTONILCO,12,ATOTONILCO EL GRANDE,1,ATOTONILCO EL GRANDE,UNIDAD DE CONSULTA EXTERNA,RURAL DE 03 NÚCLEOS BÁSICOS Y MÁS,ATOTONILCO EL GRANDE,AVENIDA JORGE VIESCA PALMA 102  CENTRO ,43300,-98.66861111,20.28527778,2080
HGSSA000663,0,0,1,0,1,SSA,13,HIDALGO,9,MOLANGO,14,CALNALI,1,CALNALI,UNIDAD DE CONSULTA EXTERNA,RURAL DE 02 NÚCLEOS BÁSICOS,CALNALI,CUAUHTÉMOC 879   ,43230,-98.58194444,20.89666667,920
HGSSA000815,2,0,1,0,1,SSA,13,HIDALGO,6,IXMIQUILPAN,15,CARDONAL,24,SAN MIGUEL TLAZINTLA,UNIDAD DE CONSULTA EXTERNA,RURAL DE 01 NÚCLEO BÁSICO,SAN MIGUEL TLAZINTLA,JUNTO A CONASUPO    ,42370,-99.08388889,20.63305556,2060
HGSSA000885,3,1,1,1,1,SSA,13,HIDALGO,2,TULANCINGO,16,CUAUTEPEC DE HINOJOSA,5,EL CAPULÍN,UNIDAD DE CONSULTA EXTERNA,RURAL DE 01 NÚCLEO BÁSICO,EL CAPULIN,EL CAPULIN POR LA CANCHA BASQUETBOL SIN NÚMERO   ,43740,-98.27555556,20.00805556,2360
HGSSA000972,1,0,1,0,1,SSA,13,HIDALGO,4,HUICHAPAN,17,CHAPANTONGO,20,TLAUNILOLPAN,UNIDAD DE CONSULTA EXTERNA,RURAL DE 01 NÚCLEO BÁSICO,TLAUNILOLPAN,CARRETERA CHAPANTONGO-NOPALA SIN NÚMERO   ,42910,-99.46888889,20.26305556,2270
HGSSA001054,2,0,1,0,1,SSA,13,HIDALGO,6,IXMIQUILPAN,19,CHILCUAUTLA,1,CHILCUAUTLA,UNIDAD DE CONSULTA EXTERNA,RURAL DE 02 NÚCLEOS BÁSICOS,CHILCUAUTLA,5 DE FEBRERO ESQUINA GUILLERMO PRIETO SIN NÚMERO   ,42750,-99.23,20.33,1860
HGSSA001136,0,0,1,0,1,SSA,13,HIDALGO,11,APAN,21,EMILIANO ZAPATA,1,EMILIANO ZAPATA,UNIDAD DE CONSULTA EXTERNA,RURAL DE 03 NÚCLEOS BÁSICOS Y MÁS,EMILIANO ZAPATA,CORREGIDORA ESQUINA HIDALGO SIN NÚMERO  CENTRO ,43961,-98.54638889,19.65416667,2480
HGSSA001170,0,1,1,0.875986993,1,SSA,13,HIDALGO,1,PACHUCA,22,EPAZOYUCAN,1,EPAZOYUCAN,UNIDAD DE CONSULTA EXTERNA,RURAL DE 02 NÚCLEOS BÁSICOS,EPAZOYUCAN,AVENIDA HIDALGO 9  CENTRO ,43580,-98.63722222,20.01694444,2460
HGSSA001223,3,0,1,0,1,SSA,13,HIDALGO,7,ACTOPAN,23,FRANCISCO I. MADERO,8,LÁZARO CÁRDENAS (COLONIA EL MEXE),UNIDAD DE CONSULTA EXTERNA,RURAL DE 01 NÚCLEO BÁSICO,LÁZARO CÁRDENAS COLONIA EL MEXE,TORRES BODET SIN NÚMERO   ,42660,-99.09416667,20.22444444,2000
HGSSA001252,1,0,1,0,1,SSA,13,HIDALGO,15,ATOTONILCO,24,HUASCA DE OCAMPO,1,HUASCA DE OCAMPO,UNIDAD DE CONSULTA EXTERNA,RURAL DE 03 NÚCLEOS BÁSICOS Y MÁS,HUASCA,VICENTE GUERRERO 2  CENTRO ,43500,-98.57583333,20.20277778,2100
HGSSA001445,0,0,1,0,1,SSA,13,HIDALGO,10,HUEJUTLA,28,HUEJUTLA DE REYES,64,LOS OTATES,UNIDAD DE CONSULTA EXTERNA,RURAL DE 01 NÚCLEO BÁSICO,LOS OTATES,PRINCIPAL SIN NÚMERO   ,43000,-98.34583333,21.15055556,120
HGSSA001486,0,0,1,0,1,SSA,13,HIDALGO,10,HUEJUTLA,28,HUEJUTLA DE REYES,88,TEHUETLÁN,UNIDAD DE CONSULTA EXTERNA,RURAL DE 02 NÚCLEOS BÁSICOS,TEHUETLAN,AVENIDA HIDALGO SIN NÚMERO  CENTRO ,43000,-98.50861111,21.05361111,320
HGSSA001515,2,0,1,0.216636196,1,SSA,13,HIDALGO,4,HUICHAPAN,29,HUICHAPAN,1,HUICHAPAN,UNIDAD DE CONSULTA EXTERNA,RURAL DE 03 NÚCLEOS BÁSICOS Y MÁS,HUICHAPAN,DR. JOSÉ MARIA RIVERA SIN NÚMERO   ,42400,-99.65055556,20.37472222,2110
HGSSA001684,1,0,1,0,1,SSA,13,HIDALGO,6,IXMIQUILPAN,30,IXMIQUILPAN,26,JULIÁN VILLAGRÁN,UNIDAD DE CONSULTA EXTERNA,RURAL DE 01 NÚCLEO BÁSICO,JULIÁN VILLAGRAN,A UN COSTADO DE LA ESCUELA PRIMARIA    ,42300,-99.10027778,20.39694444,1920
HGSSA001713,0,0,1,0,0.965529621,SSA,13,HIDALGO,6,IXMIQUILPAN,30,IXMIQUILPAN,34,ORIZABITA,UNIDAD DE CONSULTA EXTERNA,RURAL DE 01 NÚCLEO BÁSICO,ORIZABITA,A UN COSTADO DE LA BIBLIOTECA    ,42300,-99.20861111,20.58388889,1900
HGSSA001725,0,0,0,0,0,SSA,13,HIDALGO,6,IXMIQUILPAN,30,IXMIQUILPAN,35,PANALES,UNIDAD DE CONSULTA EXTERNA,RURAL DE 01 NÚCLEO BÁSICO,PANALES,PRINCIPAL SIN NÚMERO   ,42320,-99.26694444,20.46944444,1760
HGSSA001800,1,0,1,0,1,SSA,13,HIDALGO,16,JACALA,31,JACALA DE LEDEZMA,1,JACALA,UNIDAD DE CONSULTA EXTERNA,RURAL DE 02 NÚCLEOS BÁSICOS,JACALA,JUVENTINO ROJAS 106   ,42200,-99.19,21.005,1320
HGSSA001894,2,0,1,0,1,SSA,13,HIDALGO,9,MOLANGO,34,LOLOTLA,15,CHICONCOAC,UNIDAD DE CONSULTA EXTERNA,RURAL DE 01 NÚCLEO BÁSICO,CHICONCOAC,CERCA DE LA IGLESIA    ,43140,-98.73527778,20.98111111,1240
HGSSA001906,1,1,1,1,1,SSA,13,HIDALGO,13,OTOMÍ TEPEHUA,35,METEPEC,1,METEPEC,UNIDAD DE CONSULTA EXTERNA,RURAL DE 01 NÚCLEO BÁSICO,METEPEC,AVENIDA MORELOS SIN NÚMERO   ,43400,-98.32138889,20.2375,2140
HGSSA001981,3,0,1,0,1,SSA,13,HIDALGO,8,METZTITLÁN,37,METZTITLÁN,38,SAN CRISTÓBAL,UNIDAD DE CONSULTA EXTERNA,RURAL DE 01 NÚCLEO BÁSICO,SAN CRISTÓBAL,NULL,43350,-98.82861111,20.64083333,1260
HGSSA002174,0,0,1,0,1,SSA,13,HIDALGO,9,MOLANGO,42,MOLANGO DE ESCAMILLA,1,MOLANGO,UNIDAD DE CONSULTA EXTERNA,RURAL DE 02 NÚCLEOS BÁSICOS,MOLANGO,AVENIDA HIDALGO 14  BARRIO SANTA CRUZ ,43100,-98.72916667,20.78555556,1600
HGSSA002326,0,0,1,0,1,SSA,13,HIDALGO,10,HUEJUTLA,46,SAN FELIPE ORIZATLÁN,1,ORIZATLÁN,UNIDAD DE CONSULTA EXTERNA,RURAL DE 03 NÚCLEOS BÁSICOS Y MÁS,SAN FELIPE ORIZATLAN,NIÑOS HÉROES SIN NÚMERO   ,43020,-98.60777778,21.17111111,180
HGSSA002355,0,0,1,0,1,SSA,13,HIDALGO,10,HUEJUTLA,46,SAN FELIPE ORIZATLÁN,44,LAS PIEDRAS (MICRÓPOLIS ECOLÓGICA LAS PIEDRAS),UNIDAD DE CONSULTA EXTERNA,RURAL DE 02 NÚCLEOS BÁSICOS,LAS PIEDRAS MICROPOLIS ECOLOGICA,DOMICILIO CONOCIDO   AUDIENCIA PUBLICA ,43020,-98.50194444,21.35888889,80
HGSSA002524,0,1,1,1,1,SSA,13,HIDALGO,1,PACHUCA,48,PACHUCA DE SOTO,1,PACHUCA DE SOTO,UNIDAD DE CONSULTA EXTERNA,URBANO DE 02 NÚCLEOS BÁSICOS,COLONIA EL ARBOLITO,REFORMA 1503   ,42010,-98.73583333,20.12166667,2000
HGSSA002652,3,0,1,0,1,SSA,13,HIDALGO,7,ACTOPAN,50,PROGRESO DE OBREGÓN,1,PROGRESO,UNIDAD DE CONSULTA EXTERNA,CENTRO DE SALUD CON HOSPITALIZACIÓN,PROGRESO,16 DE SEPTIEMBRE 10   ,42730,-99.18916667,20.24583333,1980
HGSSA002693,2,0,1,0.000185753,1,SSA,13,HIDALGO,1,PACHUCA,52,SAN AGUSTÍN TLAXIACA,1,SAN AGUSTÍN TLAXIACA,UNIDAD DE CONSULTA EXTERNA,RURAL DE 02 NÚCLEOS BÁSICOS,SAN AGUSTÍN TLAXIACA,AVENIDA FRANCISCO I. MADERO SIN NÚMERO   ,42160,-98.88583333,20.11444444,2360
HGSSA002903,0,0,1,0,1,SSA,13,HIDALGO,7,ACTOPAN,55,SANTIAGO DE ANAYA,1,SANTIAGO DE ANAYA,UNIDAD DE CONSULTA EXTERNA,RURAL DE 01 NÚCLEO BÁSICO,SANTIAGO DE ANAYA,REFORMA ESQUINA INDEPENDENCIA SIN NÚMERO   ,42620,-98.96277778,20.38166667,2040
HGSSA003002,0,1,1,1,1,SSA,13,HIDALGO,2,TULANCINGO,56,SANTIAGO TULANTEPEC DE LUGO GUERRERO,5,EL PEDREGAL DE SAN JOSÉ,UNIDAD DE CONSULTA EXTERNA,RURAL DE 01 NÚCLEO BÁSICO,EL PEDREGAL DE SAN JOSÉ,OLMOS SIN NÚMERO   ,43760,-98.40722222,20.06555556,2200
HGSSA003014,0,1,1,1,1,SSA,13,HIDALGO,2,TULANCINGO,57,SINGUILUCAN,1,SINGUILUCAN,UNIDAD DE CONSULTA EXTERNA,RURAL DE 03 NÚCLEOS BÁSICOS Y MÁS,SINGUILUCAN,EXPLANADA REVOLUCIÓN SIN NÚMERO  CENTRO ,43780,-98.51722222,19.9675,2630
HGSSA003055,3,0,1,0,1,SSA,13,HIDALGO,5,ZIMAPÁN,58,TASQUILLO,6,CANDELARIA,UNIDAD DE CONSULTA EXTERNA,RURAL DE 01 NÚCLEO BÁSICO,CANDELARIA,ATRAS DEL JARDÍN DE NIÑOS    ,42380,-99.31027778,20.56444444,1640
HGSSA003072,0,0,1,0,1,SSA,13,HIDALGO,4,HUICHAPAN,59,TECOZAUTLA,1,TECOZAUTLA,UNIDAD DE CONSULTA EXTERNA,RURAL DE 03 NÚCLEOS BÁSICOS Y MÁS,TECOZAUTLA,CALZADA DE GUADALUPE 26   ,42440,-99.63305556,20.53333333,1700
HGSSA003113,0,0,1,0,1,SSA,13,HIDALGO,4,HUICHAPAN,59,TECOZAUTLA,30,SAN FRANCISCO,UNIDAD DE CONSULTA EXTERNA,RURAL DE 01 NÚCLEO BÁSICO,SAN FRANCISCO,CARRETERA TECOZAUTLA-TEQUISQUIAPAN SIN NÚMERO   ,42450,-99.73333333,20.47305556,1830
HGSSA003195,1,1,1,1,1,SSA,13,HIDALGO,11,APAN,61,TEPEAPULCO,1,TEPEAPULCO,UNIDAD DE CONSULTA EXTERNA,RURAL DE 03 NÚCLEOS BÁSICOS Y MÁS,TEPEAPULCO,AVENIDA 18 DE MARZO 58  CENTRO ,43970,-98.55194444,19.78444444,2520
HGSSA003241,1,0,1,0,1,SSA,13,HIDALGO,9,MOLANGO,62,TEPEHUACÁN DE GUERRERO,1,TEPEHUACÁN DE GUERRERO,UNIDAD DE CONSULTA EXTERNA,RURAL DE 01 NÚCLEO BÁSICO,TEPEHUACAN DE GUERRERO,AVENIDA DEMOCRACIA ESQUINA INDEPENDENCIA SIN NÚMERO   ,43120,-98.84277778,21.01361111,880
HGSSA003376,0,1,1,1,1,SSA,13,HIDALGO,14,TEPEJI,63,TEPEJI DEL RÍO DE OCAMPO,6,MELCHOR OCAMPO (EL SALTO),UNIDAD DE CONSULTA EXTERNA,RURAL DE 01 NÚCLEO BÁSICO,MELCHOR OCAMPO EL SALTO,FRANCISCO I. MADERO SIN NÚMERO   ,42870,-99.285,19.94361111,2150
HGSSA003393,3,1,1,1,1,SSA,13,HIDALGO,14,TEPEJI,63,TEPEJI DEL RÍO DE OCAMPO,11,SAN ILDEFONSO,UNIDAD DE CONSULTA EXTERNA,RURAL DE 02 NÚCLEOS BÁSICOS,SAN ILDEFONSO,ABUNDIO MARTINEZ SIN NÚMERO   ,42860,-99.36916667,19.99444444,2160
HGSSA003492,2,1,1,1,1,SSA,13,HIDALGO,12,TIZAYUCA,66,VILLA DE TEZONTEPEC,8,BENITO JUÁREZ,UNIDAD DE CONSULTA EXTERNA,RURAL DE 01 NÚCLEO BÁSICO,BENITO JUÁREZ,NO DISPONIBLE   BENITO JUÁREZ ,43880,-98.80583333,19.88944444,2350
HGSSA003516,0,1,1,1,1,SSA,13,HIDALGO,3,TULA,67,TEZONTEPEC DE ALDAMA,2,SANTIAGO ACAYUTLÁN,UNIDAD DE CONSULTA EXTERNA,RURAL DE 01 NÚCLEO BÁSICO,SANTIAGO ACAYUTLAN,AVENIDA MANANTIALES SIN NÚMERO   ,42760,-99.29222222,20.19611111,1980
HGSSA003550,0,0,1,0,1,SSA,13,HIDALGO,17,ZACUALTIPÁN,68,TIANGUISTENGO,1,TIANGUISTENGO,UNIDAD DE CONSULTA EXTERNA,RURAL DE 01 NÚCLEO BÁSICO,TIANGUISTENGO,AVENIDA RUPERTO ALARCÓN SIN NÚMERO  BARRIO CHICHITLA ,43270,-98.62916667,20.7275,1640
HGSSA003562,2,0,1,0,1,SSA,13,HIDALGO,17,ZACUALTIPÁN,68,TIANGUISTENGO,2,ATECOXCO,UNIDAD DE CONSULTA EXTERNA,RURAL DE 01 NÚCLEO BÁSICO,ATECOXCO,NO DISPONIBLE MANZANA 2  BARRIO TEPECO ,43280,-98.46777778,20.82555556,880
HGSSA003603,0,1,1,1,1,SSA,13,HIDALGO,12,TIZAYUCA,69,TIZAYUCA,1,TIZAYUCA,UNIDAD DE CONSULTA EXTERNA,URBANO DE 12 NÚCLEOS BÁSICOS Y MÁS,TIZAYUCA,AVENIDA 5 DE MAYO 22  EL PEDREGAL ,43800,-98.98916667,19.84166667,2270
HGSSA003656,3,1,1,1,1,SSA,13,HIDALGO,3,TULA,70,TLAHUELILPAN,1,TLAHUELILPAN,UNIDAD DE CONSULTA EXTERNA,RURAL DE 03 NÚCLEOS BÁSICOS Y MÁS,TLAHUELILPAN,5 DE MAYO 4   ,42780,-99.2325,20.13111111,2060
HGSSA003731,0,0,1,0,1,SSA,13,HIDALGO,8,METZTITLÁN,71,TLAHUILTEPA,30,XILOCUATITLA (EL PUERTO DE XILOCUATITLA),UNIDAD DE CONSULTA EXTERNA,RURAL DE 01 NÚCLEO BÁSICO,XILOCUATITLA EL PUERTO DE XILOCUATITLA,NULL,42300,-98.91694444,20.98027778,1900
HGSSA004006,0,1,1,1,1,SSA,13,HIDALGO,3,TULA,76,TULA DE ALLENDE,10,MICHIMALOYA (SAN JUAN MICHIMALOYA),UNIDAD DE CONSULTA EXTERNA,RURAL DE 01 NÚCLEO BÁSICO,MICHIMALOYA,CARRETERA TULA HÉROES CARRANZA KM. 10.5    ,42800,-99.39638889,20.10194444,2070
HGSSA004011,0,1,1,1,1,SSA,13,HIDALGO,3,TULA,76,TULA DE ALLENDE,11,BOMINTZHA,UNIDAD DE CONSULTA EXTERNA,RURAL DE 01 NÚCLEO BÁSICO,BOMINTZHA,PLAZA DE LA CONSTITUCIÓN 16   ,42800,-99.26944444,20.01083333,2240
HGSSA004163,0,0,1,0,1,SSA,13,HIDALGO,10,HUEJUTLA,78,XOCHIATIPAN,8,ATLALCO,UNIDAD DE CONSULTA EXTERNA,RURAL DE 01 NÚCLEO BÁSICO,ATLALCO,CARRETERA A ACANOA MANZANA 1   ,43090,-98.28472222,20.8175,500
HGSSA004233,0,0,1,0,1,SSA,13,HIDALGO,10,HUEJUTLA,80,YAHUALICA,1,YAHUALICA,UNIDAD DE CONSULTA EXTERNA,RURAL DE 03 NÚCLEOS BÁSICOS Y MÁS,YAHUALICA,AVENIDA HIDALGO Y HERMANOS SERDAN   CENTRO ,43080,-98.38194444,20.94916667,660
HGSSA004320,2,0,1,0,1,SSA,13,HIDALGO,17,ZACUALTIPÁN,81,ZACUALTIPÁN DE ÁNGELES,8,JALAPA,UNIDAD DE CONSULTA EXTERNA,RURAL DE 01 NÚCLEO BÁSICO,JALAPA,A UN COSTADO DEL DEPÓSITO DE AGUA    ,43200,-98.51583333,20.67194444,1520
HGSSA004385,0,1,1,0.838130713,1,SSA,13,HIDALGO,12,TIZAYUCA,83,ZEMPOALA,23,JAGÜEY DE TÉLLEZ (ESTACIÓN TÉLLEZ),UNIDAD DE CONSULTA EXTERNA,RURAL DE 01 NÚCLEO BÁSICO,JAGUEY DE TELLEZ ESTACIÓN TELLEZ,SOLIDARIDAD 2000 SIN NÚMERO   ,43840,-98.78861111,19.98,2350
HGSSA004390,2,0,1,0,1,SSA,13,HIDALGO,5,ZIMAPÁN,84,ZIMAPÁN,1,ZIMAPÁN,UNIDAD DE CONSULTA EXTERNA,CENTRO DE SALUD CON HOSPITALIZACIÓN,ZIMAPAN,AVENIDA HEROICO COLEGIO MILITAR SIN NÚMERO   ,42230,-99.38194444,20.73694444,1780
HGSSA007704,2,1,1,1,1,SSA,13,HIDALGO,1,PACHUCA,48,PACHUCA DE SOTO,1,PACHUCA DE SOTO,UNIDAD DE CONSULTA EXTERNA,URBANO DE 05 NÚCLEOS BÁSICOS,CENTRO DE SALUD SUR PONIENTE,NULL,42084,-98.73583333,20.12166667,2000
HGSSA015573,2,0,1,0,1,SSA,13,HIDALGO,8,METZTITLÁN,36,SAN AGUSTÍN METZQUITITLÁN,1,MEZQUITITLÁN,UNIDAD DE CONSULTA EXTERNA,RURAL DE 03 NÚCLEOS BÁSICOS Y MÁS,CENTRO DE SALUD RURAL DE SAN AGUSTÍN METZQUITITLAN,NULL,43380,-98.6375,20.53277778,1360
HGSSA017644,0,1,1,0.392258406,0.392258406,SSA,13,HIDALGO,12,TIZAYUCA,82,ZAPOTLÁN DE JUÁREZ,1,ZAPOTLÁN DE JUÁREZ,UNIDAD DE CONSULTA EXTERNA,RURAL DE 02 NÚCLEOS BÁSICOS,ZAPOTLAN DE JUÁREZ,LIBERTAD SIN NÚMERO  CENTRO ,42190,-98.85972222,19.97138889,2360
HGSSA017900,0,0,1,0,1,SSA,13,HIDALGO,13,OTOMÍ TEPEHUA,53,SAN BARTOLO TUTOTEPEC,1,SAN BARTOLO TUTOTEPEC,UNIDAD DE CONSULTA EXTERNA,RURAL DE 01 NÚCLEO BÁSICO,SAN BARTOLO TUTOTEPEC,NO DISPONIBLE   INDUSTRIAL ,43440,-98.20111111,20.39972222,1000
MCSSA000084,1,1,1,1,1,SSA,15,MÉXICO,1,ATLACOMULCO,1,ACAMBAY DE RUÍZ CASTAÑEDA,36,LOS PILARES,UNIDAD DE CONSULTA EXTERNA,RURAL DE 01 NÚCLEO BÁSICO,LOS PILARES,JUNTO A LA ESCUELA PRIMARIA LOS PILARES    ,50348,-99.72111111,20.005,2630
MCSSA000101,1,0,1,0,1,SSA,15,MÉXICO,1,ATLACOMULCO,1,ACAMBAY DE RUÍZ CASTAÑEDA,40,SAN FRANCISCO SHAXNI,UNIDAD DE CONSULTA EXTERNA,RURAL DE 01 NÚCLEO BÁSICO,SAN FRANCISCO SHAXNI,JUNTO A LA ESCUELA PRIMARIA Y LA IGLESIA DE SAN FRANCISCO SHAXNI    ,50348,-99.99555556,20.04972222,2730
MCSSA000125,1,0,1,0,1,SSA,15,MÉXICO,1,ATLACOMULCO,1,ACAMBAY DE RUÍZ CASTAÑEDA,46,SAN PEDRO DE LOS METATES,UNIDAD DE CONSULTA EXTERNA,RURAL DE 01 NÚCLEO BÁSICO,SAN PEDRO DE LOS METATES,JUNTO A LA ESCUELA PRIMARIA SAN PEDRO DE LOS METATES    ,50300,-99.85833333,19.89861111,2520
MCSSA000311,3,0,0,,,SSA,15,MÉXICO,3,JILOTEPEC,3,ACULCO,24,SAN LUCAS TOTOLMALOYA,UNIDAD DE CONSULTA EXTERNA,RURAL DE 01 NÚCLEO BÁSICO,SAN LUCAS TOTOLMALOYA,FRENTE A IGLESIA    ,50396,-99.89722222,20.16333333,2350
MCSSA000410,0,1,1,,,SSA,15,MÉXICO,5,TOLUCA,5,ALMOLOYA DE JUÁREZ,7,CIENEGUILLAS DE GUADALUPE,UNIDAD DE CONSULTA EXTERNA,RURAL DE 01 NÚCLEO BÁSICO,CIENEGUILLAS,KM. 30 CARRETERA TOLUCA-ZITACUARO    ,50900,-99.85916667,19.40472222,2600
MCSSA000562,2,1,1,1,1,SSA,15,MÉXICO,5,TOLUCA,5,ALMOLOYA DE JUÁREZ,37,BARRIO SAN PEDRO (LA CONCEPCIÓN SAN PEDRO),UNIDAD DE CONSULTA EXTERNA,RURAL DE 02 NÚCLEOS BÁSICOS,SAN PEDRO DE LA CONCEPCIÓN,AVENIDA EDUCACION JUNTO A ESCUELA PRIMARIA SIN NÚMERO   ,50900,-99.76527778,19.36388889,2580
MCSSA000591,0,1,1,1,1,SSA,15,MÉXICO,5,TOLUCA,5,ALMOLOYA DE JUÁREZ,41,SANTA JUANA PRIMERA SECCIÓN,UNIDAD DE CONSULTA EXTERNA,RURAL DE 01 NÚCLEO BÁSICO,SANTA JUANA 1A.SECC.,JUNTO A LOS CAMPOS DE FUTBOL    ,50900,-99.74666667,19.38694444,2631
MCSSA000632,1,1,1,1,1,SSA,15,MÉXICO,4,TENANGO DEL VALLE,6,ALMOLOYA DEL RÍO,1,ALMOLOYA DEL RÍO,UNIDAD DE CONSULTA EXTERNA,CENTROS AVANZADOS DE ATENCIÓN PRIMARIA A LA SALUD (CAAPS),CEAPS ALMOLOYA DEL RÍO  LEONARDO BRAVO BICENTENARIO,HERIBERTO ENRIQUEZ SIN NÚMERO 0 CENTRO EL PARQUE Y JOAQUÍN PAGAZA,52540,-99.48861111,19.15861111,2610
MCSSA000685,0,1,1,1,1,SSA,15,MÉXICO,9,VALLE DE BRAVO,7,AMANALCO,11,SAN BARTOLO,UNIDAD DE CONSULTA EXTERNA,RURAL DE 01 NÚCLEO BÁSICO,SAN BARTOLO,AL LADO DE LA ESCUELA PRIMARIA    ,51750,-100.0555556,19.24805556,2260
MCSSA000726,3,0,0,0,0.469818175,SSA,15,MÉXICO,7,TEJUPILCO,8,AMATEPEC,1,AMATEPEC,UNIDAD DE CONSULTA EXTERNA,CENTROS AVANZADOS DE ATENCIÓN PRIMARIA A LA SALUD (CAAPS),CEAPS AMATEPEC,IGNACIO ALLENDE CABECERA MUNICIPAL AMATEPEC 2 0 AMATEPEC SIN NOMBRES,51500,-100.1858333,18.68222222,1800
MCSSA000796,3,0,1,0,1,SSA,15,MÉXICO,7,TEJUPILCO,8,AMATEPEC,27,PALMAR CHICO,UNIDAD DE CONSULTA EXTERNA,URBANO DE 06 NÚCLEOS BÁSICOS,PALMAR CHICO,EMILIANO ZAPATA 46 0 PALMAR CHICO SIN NOMBRE ZONA RURAL,51500,-100.3683333,18.69444444,760
MCSSA000883,1,1,1,1,1,SSA,15,MÉXICO,16,AMECAMECA,9,AMECAMECA,1,AMECAMECA DE JUÁREZ,UNIDAD DE CONSULTA EXTERNA,URBANO DE 05 NÚCLEOS BÁSICOS,AMECAMECA,ZARAGOZA NÚMERO 96  BARRIO ATENCO ,56901,-98.76277778,19.12777778,2480
MCSSA000912,0,1,1,1,1,SSA,15,MÉXICO,15,ZUMPANGO,10,APAXCO,1,APAXCO DE OCAMPO,UNIDAD DE CONSULTA EXTERNA,RURAL DE 02 NÚCLEOS BÁSICOS,APAXCO,NULL,55660,-99.17,19.97333333,2190
MCSSA001035,0,1,1,1,1,SSA,15,MÉXICO,10,ATIZAPÁN DE ZARAGOZA,13,ATIZAPÁN DE ZARAGOZA,1,CIUDAD LÓPEZ MATEOS,UNIDAD DE CONSULTA EXTERNA,URBANO DE 04 NÚCLEOS BÁSICOS,LAS COLONIAS,AVENIDA GRANJAS ESQUINA COLONIA SIN NÚMERO 0 LAS COLONIAS AV. GRANJAS E HIDALGO,52952,-99.24694444,19.56111111,2280
MCSSA001040,0,1,1,1,1,SSA,15,MÉXICO,10,ATIZAPÁN DE ZARAGOZA,13,ATIZAPÁN DE ZARAGOZA,1,CIUDAD LÓPEZ MATEOS,UNIDAD DE CONSULTA EXTERNA,URBANO DE 04 NÚCLEOS BÁSICOS,SAN MARTÍN DE PORRES,CERRADA  IGNACIO ZARAGOZA SIN NÚMERO  SAN MARTIN DE PORRES ,52980,-99.24694444,19.56111111,2280
MCSSA001076,0,1,1,1,1,SSA,15,MÉXICO,10,ATIZAPÁN DE ZARAGOZA,13,ATIZAPÁN DE ZARAGOZA,1,CIUDAD LÓPEZ MATEOS,UNIDAD DE CONSULTA EXTERNA,URBANO DE 06 NÚCLEOS BÁSICOS,MARGARITA MAZA DE JUÁREZ,JOSÉFA ORTÍZ DE DOMÍNGUEZ SIN NÚMERO  MARGARITA MAZA DE JUÁREZ ,52926,-99.24694444,19.56111111,2280
MCSSA001093,2,1,1,1,1,SSA,15,MÉXICO,10,ATIZAPÁN DE ZARAGOZA,13,ATIZAPÁN DE ZARAGOZA,1,CIUDAD LÓPEZ MATEOS,UNIDAD DE CONSULTA EXTERNA,URBANO DE 08 NÚCLEOS BÁSICOS,LOMAS DE SAN MIGUEL,MANDARINA ENTRE NOCHE BUENA Y LAUREL SIN NÚMERO  LOMAS DE SAN MIGUEL ,59919,-99.24694444,19.56111111,2280
MCSSA001105,0,1,1,1,1,SSA,15,MÉXICO,10,ATIZAPÁN DE ZARAGOZA,13,ATIZAPÁN DE ZARAGOZA,1,CIUDAD LÓPEZ MATEOS,UNIDAD DE CONSULTA EXTERNA,URBANO DE 09 NÚCLEOS BÁSICOS,HIGUERA,AVENIDA DEL CAMPO SIN NÚMERO 0 PROFESOR CRISTOBAL HIGUERA DEL ROSAL Y MORELOS,54940,-99.24694444,19.56111111,2280
MCSSA001175,1,1,1,1,1,SSA,15,MÉXICO,1,ATLACOMULCO,14,ATLACOMULCO,35,SAN ANTONIO ENCHISI,UNIDAD DE CONSULTA EXTERNA,RURAL DE 02 NÚCLEOS BÁSICOS,SAN ANTONIO ENCHISI,ENTRADA A CARRETERA LIBRE JUNTO A LA ESCUELA SECUNDARIA    ,50480,-99.81666667,19.75472222,2680
MCSSA001233,0,1,1,1,1,SSA,15,MÉXICO,1,ATLACOMULCO,14,ATLACOMULCO,48,SAN LORENZO TLACOTEPEC,UNIDAD DE CONSULTA EXTERNA,CENTROS AVANZADOS DE ATENCIÓN PRIMARIA A LA SALUD (CAAPS),CEAPS SAN LORENZO TLACOTEPEC,AVENIDA JAVIER LÓPEZ GARCIA SIN NÚMERO   ,50450,-99.91222222,19.8125,2550
MCSSA001320,1,1,1,1,1,SSA,15,MÉXICO,13,TEOTIHUACÁN,16,AXAPUSCO,6,JALTEPEC,UNIDAD DE CONSULTA EXTERNA,RURAL DE 01 NÚCLEO BÁSICO,JALTEPEC,AVENIDA MÉXICO NORTE 212   ,55952,-98.63472222,19.72972222,2490
MCSSA001385,0,1,1,1,1,SSA,15,MÉXICO,4,TENANGO DEL VALLE,18,CALIMAYA,1,CALIMAYA DE DÍAZ GONZÁLEZ,UNIDAD DE CONSULTA EXTERNA,URBANO DE 03 NÚCLEOS BÁSICOS,CALIMAYA SUR,ÁLVARO OBREGON 18 0 CENTRO JOSÉ MARÍA MORELOS Y CALLE SIN NOMBRE,52200,-99.61722222,19.16083333,2690
MCSSA001426,0,1,1,1,1,SSA,15,MÉXICO,4,TENANGO DEL VALLE,18,CALIMAYA,10,ZARAGOZA DE GUADALUPE,UNIDAD DE CONSULTA EXTERNA,RURAL DE 02 NÚCLEOS BÁSICOS,GUADALUPE ZARAGOZA,EMILIANO ZAPATA JUNTO AL JARDÍN DE NIÑOS SIN NÚMERO 0 CENTRO FRANCISCO Y MADERO Y NICOLÁS BRAVO,52200,-99.64527778,19.14611111,2850
MCSSA001431,0,1,1,1,1,SSA,15,MÉXICO,4,TENANGO DEL VALLE,19,CAPULHUAC,1,CAPULHUAC DE MIRAFUENTES,UNIDAD DE CONSULTA EXTERNA,CENTROS AVANZADOS DE ATENCIÓN PRIMARIA A LA SALUD (CAAPS),CEAPS CAPULHUAC DE MIRAFUENTES,AVENIDA NIÑOS HÉROES SIN NÚMERO 0 CENTRO GENERAL ANAYA Y ARCELIA,52700,-99.46472222,19.19166667,2630
MCSSA001571,3,1,1,0.336535752,1,SSA,15,MÉXICO,8,TENANCINGO,21,COATEPEC HARINAS,30,SAN LUIS (COLONIA HIDALGO),UNIDAD DE CONSULTA EXTERNA,RURAL DE 01 NÚCLEO BÁSICO,COL. HIDALGO (SAN LUIS),CARRETERA A COATEPEC-IXTPAN DE LA SAL SIN NÚMERO   ,51700,-99.75888889,18.88055556,2020
MCSSA001624,0,1,1,1,1,SSA,15,MÉXICO,11,CUAUTITLÁN,23,COYOTEPEC,1,COYOTEPEC,UNIDAD DE CONSULTA EXTERNA,URBANO DE 02 NÚCLEOS BÁSICOS,COYOTEPEC,AV CONSTITUCIÓN SIN NÚMERO  BARRIO CHAUTONCO ,54780,-99.20555556,19.77555556,2300
MCSSA001670,0,1,1,0.892277002,0.914479971,SSA,15,MÉXICO,11,CUAUTITLÁN,24,CUAUTITLÁN,1,CUAUTITLÁN,UNIDAD DE CONSULTA EXTERNA,URBANO DE 05 NÚCLEOS BÁSICOS,NUEVA SANTA MARÍA CUAUTITLÁN,IGNACIO RAMÍREZ 202  EL HUERTO ,54800,-99.17916667,19.66694444,2250
MCSSA001711,0,1,1,1,1,SSA,15,MÉXICO,16,AMECAMECA,25,CHALCO,5,SAN GREGORIO CUAUTZINGO,UNIDAD DE CONSULTA EXTERNA,RURAL DE 01 NÚCLEO BÁSICO,SAN GREGORIO CUAUTZINGO,BENITO JUÁREZ ESQUINA GUERRERO SIN NÚMERO   ,56640,-98.85777778,19.25611111,2240
MCSSA001752,3,1,1,1,1,SSA,15,MÉXICO,16,AMECAMECA,25,CHALCO,14,SAN MARTÍN CUAUTLALPAN,UNIDAD DE CONSULTA EXTERNA,RURAL DE 03 NÚCLEOS BÁSICOS Y MÁS,SAN MARTÍN CUAUTLALPAN,EMILIANO ZAPATA SIN NÚMERO   ,56644,-98.83277778,19.27277778,2280
MCSSA001781,0,1,1,0.974183023,0.974183023,SSA,15,MÉXICO,16,AMECAMECA,25,CHALCO,20,SANTA CATARINA AYOTZINGO,UNIDAD DE CONSULTA EXTERNA,RURAL DE 03 NÚCLEOS BÁSICOS Y MÁS,SANTA CATARINA AYOTZINGO,EMILIANO ZAPATA 54   ,56623,-98.92944444,19.20916667,2260
MCSSA001793,3,1,1,1,1,SSA,15,MÉXICO,16,AMECAMECA,25,CHALCO,21,SANTA MARÍA HUEXOCULCO,UNIDAD DE CONSULTA EXTERNA,RURAL DE 02 NÚCLEOS BÁSICOS,SANTA MARÍA HUEXOCULCO,BRAVO SIN NÚMERO   ,56640,-98.80361111,19.25527778,2280
MCSSA001805,0,0,0,0.801821351,0.801821351,SSA,15,MÉXICO,3,JILOTEPEC,26,CHAPA DE MOTA,1,CHAPA DE MOTA,UNIDAD DE CONSULTA EXTERNA,CENTROS AVANZADOS DE ATENCIÓN PRIMARIA A LA SALUD (CAAPS),CEAPS CHAPA DE MOTA,AVENIDA HIDALGO SIN NÚMERO  CENTRO ,54350,-99.52694444,19.81444444,2644
MCSSA001851,2,0,1,0,1,SSA,15,MÉXICO,3,JILOTEPEC,26,CHAPA DE MOTA,20,SAN FELIPE COAMANGO,UNIDAD DE CONSULTA EXTERNA,RURAL DE 02 NÚCLEOS BÁSICOS,SAN FELIPE COAMANGO,FRENTE A LA IGLESIA    ,54385,-99.61111111,19.85722222,2662
MCSSA002003,3,1,1,0.947765589,0.947765589,SSA,15,MÉXICO,19,TEXCOCO,29,CHICOLOAPAN,1,CHICOLOAPAN DE JUÁREZ,UNIDAD DE CONSULTA EXTERNA,URBANO DE 07 NÚCLEOS BÁSICOS,SAN VICENTE CHICOLOAPAN,PROLONGACIÓN 2 DE MARZO SIN NÚMERO  SAN VICENTE ,56370,-98.90111111,19.41527778,2250
MCSSA002015,0,1,1,1,1,SSA,15,MÉXICO,19,TEXCOCO,30,CHICONCUAC,1,CHICONCUAC DE JUÁREZ,UNIDAD DE CONSULTA EXTERNA,CENTROS AVANZADOS DE ATENCIÓN PRIMARIA A LA SALUD (CAAPS),CEAPS CHICONCUAC,NIÑOS HÉROES ESQUINA CUAUHTÉMOC SIN NÚMERO  CENTRO ,56270,-98.8925,19.55833333,2250
MCSSA002056,0,1,1,1,1,SSA,15,MÉXICO,19,TEXCOCO,31,CHIMALHUACÁN,1,CHIMALHUACÁN,UNIDAD DE CONSULTA EXTERNA,URBANO DE 12 NÚCLEOS BÁSICOS Y MÁS,BARRIO FUNDIDORES,AVENIDA EJIDO COLECTIVO BARRIO FUNDIDORES   LA LOBA 1A. SECCIÓN ,56330,-98.95416667,19.4375,2400
MCSSA002102,0,1,1,0.946791887,0.946791887,SSA,15,MÉXICO,9,VALLE DE BRAVO,32,DONATO GUERRA,8,SAN AGUSTÍN DE LAS PALMAS (SAN AGUSTÍN),UNIDAD DE CONSULTA EXTERNA,RURAL DE 02 NÚCLEOS BÁSICOS,SAN AGUSTÍN LAS PALMAS,AL LADO ESCUELA PRIMARIA LEYES DE REFORMA    ,51030,-100.1491667,19.32305556,2300
MCSSA002143,0,1,1,1,0.199473336,SSA,15,MÉXICO,9,VALLE DE BRAVO,32,DONATO GUERRA,12,SAN JUAN XOCONUSCO,UNIDAD DE CONSULTA EXTERNA,RURAL DE 02 NÚCLEOS BÁSICOS,SAN JUAN XOCONUSCO,A UN COSTADO DE LA CARPINTERIA    ,51050,-100.2572222,19.31194444,2060
MCSSA002172,1,1,1,1,1,SSA,15,MÉXICO,9,VALLE DE BRAVO,32,DONATO GUERRA,18,SANTIAGO HUITLAPALTEPEC,UNIDAD DE CONSULTA EXTERNA,RURAL DE 01 NÚCLEO BÁSICO,SANTIAGO HUITLAPALTEPEC,A UN COSTADO DE LA ESCUELA SECUNDARIA    ,51030,-100.2088889,19.28111111,2160
MCSSA002213,3,1,1,1,1,SSA,15,MÉXICO,17,ECATEPEC,33,ECATEPEC DE MORELOS,1,ECATEPEC DE MORELOS,UNIDAD DE CONSULTA EXTERNA,URBANO DE 01 NÚCLEOS BÁSICOS,TABLA DEL POZO,MANZ.ESQUINA MANDAR. SIN NÚMERO  TABLA ,55520,-99.06,19.60972222,2250
MCSSA002225,0,1,1,1,1,SSA,15,MÉXICO,17,ECATEPEC,33,ECATEPEC DE MORELOS,1,ECATEPEC DE MORELOS,UNIDAD DE CONSULTA EXTERNA,URBANO DE 05 NÚCLEOS BÁSICOS,MIGUEL HIDALGO,INDEPENDENCIA ESQUINA EMILIANO ZAPATA   MIGUEL HIDALGO ,55490,-99.06,19.60972222,2250
MCSSA002230,0,1,1,1,1,SSA,15,MÉXICO,17,ECATEPEC,33,ECATEPEC DE MORELOS,1,ECATEPEC DE MORELOS,UNIDAD DE CONSULTA EXTERNA,URBANO DE 05 NÚCLEOS BÁSICOS,SAN PEDRO XALOSTOC,CERRADA DE TEPIC ESQUINA AVENIDACUAUHTÉMOC SIN NÚMERO   ,55310,-99.06,19.60972222,2250
MCSSA002242,2,1,1,1,1,SSA,15,MÉXICO,17,ECATEPEC,33,ECATEPEC DE MORELOS,1,ECATEPEC DE MORELOS,UNIDAD DE CONSULTA EXTERNA,URBANO DE 06 NÚCLEOS BÁSICOS,CIUDAD CUAUHTÉMOC,CERRADA TLATELOLCO SECCIÓN CUITLAHUAC SIN NÚMERO  CIUDAD CUAHTÉMOC ,55067,-99.06,19.60972222,2250
MCSSA002254,0,1,1,1,1,SSA,15,MÉXICO,17,ECATEPEC,33,ECATEPEC DE MORELOS,1,ECATEPEC DE MORELOS,UNIDAD DE CONSULTA EXTERNA,URBANO DE 06 NÚCLEOS BÁSICOS,CHAMIZAL,NUEVO LEON ESQUINA MIGUEL A.VALDEZ SIN NÚMERO   ,55270,-99.06,19.60972222,2250
MCSSA002266,1,1,1,1,1,SSA,15,MÉXICO,17,ECATEPEC,33,ECATEPEC DE MORELOS,1,ECATEPEC DE MORELOS,UNIDAD DE CONSULTA EXTERNA,URBANO DE 06 NÚCLEOS BÁSICOS,JARDINES DE MORELOS,AVENIDA GENERAL GALEANA Y RÍO LERMA SECCIÓN RIOS    ,55070,-99.06,19.60972222,2250
MCSSA002271,2,1,1,1,1,SSA,15,MÉXICO,17,ECATEPEC,33,ECATEPEC DE MORELOS,1,ECATEPEC DE MORELOS,UNIDAD DE CONSULTA EXTERNA,URBANO DE 07 NÚCLEOS BÁSICOS,JOSÉ MA.MORELOS Y PAVÓN,ANDRÉS QUINTANA ROO ESQUINA JOSÉ MA. M.    ,55018,-99.06,19.60972222,2250
MCSSA002283,1,1,1,1,1,SSA,15,MÉXICO,17,ECATEPEC,33,ECATEPEC DE MORELOS,1,ECATEPEC DE MORELOS,UNIDAD DE CONSULTA EXTERNA,URBANO DE 08 NÚCLEOS BÁSICOS,SANTA CLARA,CERRAD FRANCISCO JAVIER MINA 3  SANTA CLARA COAT. ,55540,-99.06,19.60972222,2250
MCSSA002295,2,1,1,0.985481262,1,SSA,15,MÉXICO,17,ECATEPEC,33,ECATEPEC DE MORELOS,1,ECATEPEC DE MORELOS,UNIDAD DE CONSULTA EXTERNA,URBANO DE 09 NÚCLEOS BÁSICOS,AMPLIACIÓN TULPETLAC,RIO BRAVO ENTRE AVENIDAMÉXICO Y RÍO PAPALOAPAN SIN NÚMERO   ,55400,-99.06,19.60972222,2250
MCSSA002300,0,1,1,0.996164203,1,SSA,15,MÉXICO,17,ECATEPEC,33,ECATEPEC DE MORELOS,1,ECATEPEC DE MORELOS,UNIDAD DE CONSULTA EXTERNA,URBANO DE 10 NÚCLEOS BÁSICOS,EMILIANO ZAPATA,MIGUEL HIDALGO ENTRE IGNACIO COMONFORT Y VENUSTIANO CARRANZA SIN NÚMERO   ,55200,-99.06,19.60972222,2250
MCSSA002312,0,1,1,1,1,SSA,15,MÉXICO,17,ECATEPEC,33,ECATEPEC DE MORELOS,1,ECATEPEC DE MORELOS,UNIDAD DE CONSULTA EXTERNA,URBANO DE 10 NÚCLEOS BÁSICOS,SAN JUAN IXHUATEPEC,VICENTE GUERRERO ESQUINA IGNACIO ZARAGOZA SIN NÚMERO  UNIDAD IXH. ,55540,-99.06,19.60972222,2250
MCSSA002324,0,1,1,1,1,SSA,15,MÉXICO,17,ECATEPEC,33,ECATEPEC DE MORELOS,1,ECATEPEC DE MORELOS,UNIDAD DE CONSULTA EXTERNA,URBANO DE 11 NÚCLEOS BÁSICOS,NUEVA ARAGON,JUAN ALDAMA ESQUINA LÓPEZ MATEOS   NUEVA ARAGÓN ,55260,-99.06,19.60972222,2250
MCSSA002336,2,1,1,1,1,SSA,15,MÉXICO,17,ECATEPEC,33,ECATEPEC DE MORELOS,1,ECATEPEC DE MORELOS,UNIDAD DE CONSULTA EXTERNA,URBANO DE 12 NÚCLEOS BÁSICOS Y MÁS,HANK GONZÁLEZ,EMILIANO ZAPATA ESQUINA PROLOGACIÓN DE ALLENDE SIN NÚMERO   ,55520,-99.06,19.60972222,2250
MCSSA002341,0,1,1,1,1,SSA,15,MÉXICO,17,ECATEPEC,33,ECATEPEC DE MORELOS,1,ECATEPEC DE MORELOS,UNIDAD DE CONSULTA EXTERNA,URBANO DE 12 NÚCLEOS BÁSICOS Y MÁS,HÉROES DE GRANADITAS,VILLA VICTORIA SIN NÚMERO  HÉROES D. G. ,55297,-99.06,19.60972222,2250
MCSSA002353,0,1,1,1,1,SSA,15,MÉXICO,17,ECATEPEC,33,ECATEPEC DE MORELOS,1,ECATEPEC DE MORELOS,UNIDAD DE CONSULTA EXTERNA,URBANO DE 12 NÚCLEOS BÁSICOS Y MÁS,JARDINES DE SAN GABRIEL,CHICOASEN ESQUINA FRANCISCO PÉREZ RIOS SIN NÚMERO  J. SN. G. ,55220,-99.06,19.60972222,2250
MCSSA002365,0,1,1,1,1,SSA,15,MÉXICO,17,ECATEPEC,33,ECATEPEC DE MORELOS,1,ECATEPEC DE MORELOS,UNIDAD DE CONSULTA EXTERNA,URBANO DE 12 NÚCLEOS BÁSICOS Y MÁS,SAN AGUSTÍN,AVENIDA SSANTA RITA Y SUR 90   NUEVO PASEO DE SN ,55130,-99.06,19.60972222,2250
MCSSA002370,0,1,1,0.934204638,0.934204638,SSA,15,MÉXICO,17,ECATEPEC,33,ECATEPEC DE MORELOS,1,ECATEPEC DE MORELOS,UNIDAD DE CONSULTA EXTERNA,URBANO DE 12 NÚCLEOS BÁSICOS Y MÁS,RUÍZ CORTINES,NORTE 3 ESQUINA ORIENTE 3   ADOLFO RUIZ CORTINEZ ,55050,-99.06,19.60972222,2250
MCSSA002382,0,1,1,1,1,SSA,15,MÉXICO,17,ECATEPEC,33,ECATEPEC DE MORELOS,1,ECATEPEC DE MORELOS,UNIDAD DE CONSULTA EXTERNA,URBANO DE 12 NÚCLEOS BÁSICOS Y MÁS,SANTA MARÍA CHICONAUTLA,CERRADA HIDALGO ENTRE AVENIDANACIONAL Y PROG SIN NÚMERO   ,55060,-99.06,19.60972222,2250
MCSSA002423,2,1,1,1,1,SSA,15,MÉXICO,16,AMECAMECA,34,ECATZINGO,3,SAN JUAN TLACOTOMPA (TLACOTOMPA),UNIDAD DE CONSULTA EXTERNA,RURAL DE 01 NÚCLEO BÁSICO,TLACOTOMPA,AVENIDA HIDALGO SIN NÚMERO   ,56990,-98.79138889,18.94111111,2117
MCSSA002464,1,1,1,1,1,SSA,15,MÉXICO,15,ZUMPANGO,35,HUEHUETOCA,11,SAN MIGUEL JAGÜEYES,UNIDAD DE CONSULTA EXTERNA,RURAL DE 01 NÚCLEO BÁSICO,SAN MIGUEL DE LOS JAGUEYES,PRINCIPAL A UN COSTADO DEL JARDÍN    ,55650,-99.27527778,19.84111111,2350
MCSSA002510,0,1,1,1,1,SSA,15,MÉXICO,15,ZUMPANGO,36,HUEYPOXTLA,9,SANTA MARÍA AJOLOAPAN,UNIDAD DE CONSULTA EXTERNA,RURAL DE 03 NÚCLEOS BÁSICOS Y MÁS,SANTA MARÍA AJOLOAPAN,FRANCISCO I. MADERO SIN NÚMERO 0 SANTA MARÍA AJOLOAPAN 16 DE SEPTIEMBRE Y KINDER,55670,-99.04472222,19.97694444,2350
MCSSA002563,1,1,1,1,1,SSA,15,MÉXICO,6,XONACATLÁN,37,HUIXQUILUCAN,5,DOS RÍOS,UNIDAD DE CONSULTA EXTERNA,RURAL DE 03 NÚCLEOS BÁSICOS Y MÁS,DOS RÍOS,PRIMAVERA ESQUINA AVENIDA SANTA CRUZ AYOTUXCO    ,52790,-99.34444444,19.37277778,2620
MCSSA002575,0,1,1,1,1,SSA,15,MÉXICO,6,XONACATLÁN,37,HUIXQUILUCAN,17,PIEDRA GRANDE,UNIDAD DE CONSULTA EXTERNA,RURAL DE 01 NÚCLEO BÁSICO,PIEDRA GRANDE,FRENTE LA IGLESIA SIN NÚMERO 0 PIEDRA GRANDE AVENIDA PRINCIPAL Y CALLE SIN NOMBRE,52799,-99.38805556,19.35166667,2990
MCSSA002592,2,1,1,1,1,SSA,15,MÉXICO,6,XONACATLÁN,37,HUIXQUILUCAN,23,SAN JUAN YAUTEPEC,UNIDAD DE CONSULTA EXTERNA,RURAL DE 03 NÚCLEOS BÁSICOS Y MÁS,SAN JUAN YAUTEPEC,SOBRE LA LOMA JUNTO AL DIF    ,52768,-99.34027778,19.34805556,2800
MCSSA002616,0,1,1,1,1,SSA,15,MÉXICO,6,XONACATLÁN,37,HUIXQUILUCAN,25,SANTIAGO YANCUITLALPAN,UNIDAD DE CONSULTA EXTERNA,RURAL DE 02 NÚCLEOS BÁSICOS,SANTIAGO YANCUITLALPAN,AVENIDA MÉXICO SALIDA A CUAJIMALPA SIN NÚMERO 0 SANTIAGO YANCUITLALPAN MÉXICO Y CALLE SIN NOMBRE,52776,-99.30555556,19.38194444,2600
MCSSA002720,1,1,1,1,1,SSA,15,MÉXICO,16,AMECAMECA,39,IXTAPALUCA,4,COATEPEC,UNIDAD DE CONSULTA EXTERNA,RURAL DE 01 NÚCLEO BÁSICO,COATEPEC,AGUSTIN CRUZ ESQUINA LAS FLORES    ,56580,-98.84611111,19.38388889,2400
MCSSA002744,3,1,1,1,1,SSA,15,MÉXICO,16,AMECAMECA,39,IXTAPALUCA,11,RÍO FRÍO DE JUÁREZ,UNIDAD DE CONSULTA EXTERNA,RURAL DE 01 NÚCLEO BÁSICO,RÍO FRÍO DE JUÁREZ,AVENIDA MORELOS 34   ,56580,-98.66972222,19.3525,3000
MCSSA002901,1,1,1,1,1,SSA,15,MÉXICO,2,IXTLAHUACA,42,IXTLAHUACA,7,GUADALUPE CACHI,UNIDAD DE CONSULTA EXTERNA,RURAL DE 02 NÚCLEOS BÁSICOS,GUADALUPE CACHI,A UN COSTADO DE LA ESCUELA PRIMARIA    ,50740,-99.825,19.60111111,2530
MCSSA002925,3,1,1,1,1,SSA,15,MÉXICO,2,IXTLAHUACA,42,IXTLAHUACA,13,SAN ANDRÉS DEL PEDREGAL,UNIDAD DE CONSULTA EXTERNA,RURAL DE 03 NÚCLEOS BÁSICOS Y MÁS,SAN ANDRÉS DEL PEDREGAL,CARRETERA FEDERAL IXTLAHUACA    ,50770,-99.86972222,19.5825,2573
MCSSA003012,0,1,1,1,1,SSA,15,MÉXICO,2,IXTLAHUACA,42,IXTLAHUACA,30,SAN PEDRO LOS BAÑOS,UNIDAD DE CONSULTA EXTERNA,RURAL DE 03 NÚCLEOS BÁSICOS Y MÁS,SAN PEDRO DE LOS BAÑOS II,FRENTE AL PANTEON Y ESCUELA PRIMARIA    ,50740,-99.83361111,19.66666667,2540
MCSSA003070,3,1,1,1,1,SSA,15,MÉXICO,2,IXTLAHUACA,42,IXTLAHUACA,35,SANTO DOMINGO DE GUZMÁN,UNIDAD DE CONSULTA EXTERNA,RURAL DE 03 NÚCLEOS BÁSICOS Y MÁS,SANTO DOMINGO DE GUZMÁN,A UN COSTADO DE LA ESCUELA SECUNDARIA    ,50740,-99.77972222,19.59305556,2530
MCSSA003111,0,1,1,1,1,SSA,15,MÉXICO,4,TENANGO DEL VALLE,43,XALATLACO,1,XALATLACO,UNIDAD DE CONSULTA EXTERNA,URBANO DE 04 NÚCLEOS BÁSICOS,XALATLACO,NULL,52680,-99.41638889,19.18111111,2700
MCSSA003123,1,1,1,1,1,SSA,15,MÉXICO,4,TENANGO DEL VALLE,43,XALATLACO,8,SAN JUAN TOMASQUILLO HERRADURA,UNIDAD DE CONSULTA EXTERNA,RURAL DE 02 NÚCLEOS BÁSICOS,SAN JUAN TOMASQUILLO,ENTRE RAMON BETETA Y AVENIDACRUZ LARGA   CENTRO ,52680,-99.4025,19.17222222,2880
MCSSA003135,1,1,1,1,1,SSA,15,MÉXICO,15,ZUMPANGO,44,JALTENCO,1,JALTENCO,UNIDAD DE CONSULTA EXTERNA,CENTROS AVANZADOS DE ATENCIÓN PRIMARIA A LA SALUD (CAAPS),CEAPS JALTENCO,DANTE SIN NÚMERO 0 CENTRO 16 DE SEPTIEMBRE Y 5 DE MAYO,55780,-99.09444444,19.74861111,2240
MCSSA003140,0,1,1,1,1,SSA,15,MÉXICO,15,ZUMPANGO,125,TONANITLA,1,SANTA MARÍA TONANITLA,UNIDAD DE CONSULTA EXTERNA,RURAL DE 02 NÚCLEOS BÁSICOS,SANTA MARÍA TONANITLA,AVENIDA 20 DE NOVIEMBRE SIN NÚMERO 0 SANTA MARÍA TONANITLA 30 DE OCTUBRE Y 2 DE ABRIL,55780,-99.05305556,19.68805556,2240
MCSSA003152,0,1,1,1,1,SSA,15,MÉXICO,3,JILOTEPEC,45,JILOTEPEC,1,JILOTEPEC DE MOLINA ENRÍQUEZ,UNIDAD DE CONSULTA EXTERNA,RURAL DE 03 NÚCLEOS BÁSICOS Y MÁS,CENTRO DE SALUD JILOTEPEC,FRANCISCO JAVIER MINA JUNTO AL MERCADO SAN JOSÉ SIN NÚMERO  CENTRO ,54240,-99.53277778,19.95194444,2452
MCSSA003193,0,1,1,1,1,SSA,15,MÉXICO,3,JILOTEPEC,45,JILOTEPEC,6,CALPULALPAN (PRIMERA MANZANA CENTRO),UNIDAD DE CONSULTA EXTERNA,RURAL DE 03 NÚCLEOS BÁSICOS Y MÁS,CALPULALPAN,FRENTE A LA ESCUELA PRIMARIA    ,54265,-99.63583333,20.05555556,2700
MCSSA003234,0,1,1,1,1,SSA,15,MÉXICO,3,JILOTEPEC,45,JILOTEPEC,16,LAS HUERTAS,UNIDAD DE CONSULTA EXTERNA,RURAL DE 02 NÚCLEOS BÁSICOS,LAS HUERTAS,JUNTO IGLESIA Y ESCUELA PRIMARIA    ,54256,-99.55694444,19.97111111,2550
MCSSA003251,3,1,1,1,1,SSA,15,MÉXICO,3,JILOTEPEC,45,JILOTEPEC,24,SAN LORENZO NENAMICOYAN,UNIDAD DE CONSULTA EXTERNA,RURAL DE 01 NÚCLEO BÁSICO,SAN LORENZO NENAMICOYAN,FRENTE AL CERRO DE LA VIRGEN MANZANA 2   ,54273,-99.63888889,20.1375,2750
MCSSA003304,0,1,1,0.861747861,1,SSA,15,MÉXICO,3,JILOTEPEC,45,JILOTEPEC,33,XHIMÓJAY,UNIDAD DE CONSULTA EXTERNA,RURAL DE 01 NÚCLEO BÁSICO,XHIMOJAY,FRENTE A LA CONASUPO    ,54255,-99.63472222,19.91972222,2689
MCSSA003350,0,1,1,1,1,SSA,15,MÉXICO,12,NAUCALPAN,46,JILOTZINGO,3,SAN LUIS AYUCAN,UNIDAD DE CONSULTA EXTERNA,CENTROS AVANZADOS DE ATENCIÓN PRIMARIA A LA SALUD (CAAPS),CEAPS SAN LUIS AYUCA,APROXIMADAMENTE A 50 METROS DE LA SECUNDARIA FEDERAL DE SAN LUIS EL CEDRAL A PIE DE CARRETERA SIN NÚMERO 0 CARRETERA NAUCALPAN-IXTLAHUACA SIN NOMBRE ZONA RURAL,54570,-99.36333333,19.49555556,2750
MCSSA003391,1,1,1,1,1,SSA,15,MÉXICO,2,IXTLAHUACA,47,JIQUIPILCO,8,LOMA DE HIDALGO,UNIDAD DE CONSULTA EXTERNA,RURAL DE 01 NÚCLEO BÁSICO,LOMA HIDALGO,A UN LADO DE LA ESCUELA SECUNDARIA    ,50820,-99.64888889,19.59527778,2570
MCSSA003473,0,0,0,0.761432946,0.761432946,SSA,15,MÉXICO,2,IXTLAHUACA,47,JIQUIPILCO,25,PRIMERA MANZANA DE SANTA CRUZ TEPEXPAN,UNIDAD DE CONSULTA EXTERNA,RURAL DE 02 NÚCLEOS BÁSICOS,SANTA CRUZ TEPEXPAN,ATRAS DE LA IGLESIA   CENTRO ,50800,-99.70277778,19.56833333,2587
MCSSA003671,0,1,1,1,1,SSA,15,MÉXICO,4,TENANGO DEL VALLE,49,JOQUICINGO,5,TECHUCHULCO DE ALLENDE,UNIDAD DE CONSULTA EXTERNA,RURAL DE 02 NÚCLEOS BÁSICOS,TECHUCHULCO DE ALLENDE,"JUNTO A LA PREPARATORIA SIN NÚMERO 0 CENTRO CALLES SIN NÚMERO, ZONA RURAL",52370,-99.52333333,19.11166667,2580
MCSSA003683,2,1,1,1,1,SSA,15,MÉXICO,16,AMECAMECA,50,JUCHITEPEC,1,JUCHITEPEC DE MARIANO RIVAPALACIO,UNIDAD DE CONSULTA EXTERNA,CENTROS AVANZADOS DE ATENCIÓN PRIMARIA A LA SALUD (CAAPS),CEAPS JUCHITEPEC IGNACIO LÓPEZ RAYÓN BICENTENARIO,PROLONGACIÓN JUAN FLORES Y CASAS SIN NÚMERO  CENTRO ,56860,-98.87916667,19.09972222,2560
MCSSA003922,0,1,1,1,1,SSA,15,MÉXICO,5,TOLUCA,54,METEPEC,47,SAN MIGUEL TOTOCUITLAPILCO,UNIDAD DE CONSULTA EXTERNA,RURAL DE 02 NÚCLEOS BÁSICOS,SAN MIGUEL TOTOCUITLAPILCO,INSURGENTES ESQUINA ZARAGOZA SIN NÚMERO  BARRIO SAN NICOLÁS ,52143,-99.59166667,19.22888889,2600
MCSSA003946,2,1,1,1,1,SSA,15,MÉXICO,4,TENANGO DEL VALLE,55,MEXICALTZINGO,1,SAN MATEO MEXICALTZINGO,UNIDAD DE CONSULTA EXTERNA,RURAL DE 03 NÚCLEOS BÁSICOS Y MÁS,MEXICALTZINGO,NARCIZO MENDOZA ESQUINA ALLENDE SIN NÚMERO   ,52180,-99.58583333,19.20916667,2600
MCSSA003951,0,0,0,0.022870211,0.503430545,SSA,15,MÉXICO,2,IXTLAHUACA,56,MORELOS,1,SAN BARTOLO MORELOS,UNIDAD DE CONSULTA EXTERNA,CENTROS AVANZADOS DE ATENCIÓN PRIMARIA A LA SALUD (CAAPS),CEAPS SAN BARTOLO MORELOS,PROFESOR JOSÉ MIRANDA ESQUINA 8 DE OCTUBRE SIN NÚMERO   ,50550,-99.67083333,19.78444444,2700
MCSSA004045,0,0,1,0,1,SSA,15,MÉXICO,2,IXTLAHUACA,56,MORELOS,29,COLONIA FRANCISCO I. MADERO,UNIDAD DE CONSULTA EXTERNA,RURAL DE 01 NÚCLEO BÁSICO,COLONIA FRANCISCO I.MADERO,JUNTO A LA ESCUELA Y CAMPO DE FUTBOL   FRANCISCO I. MADERO ,50580,-99.73638889,19.80583333,2788
MCSSA004202,1,1,1,1,1,SSA,15,MÉXICO,12,NAUCALPAN,57,NAUCALPAN DE JUÁREZ,88,SAN FRANCISCO CHIMALPA,UNIDAD DE CONSULTA EXTERNA,RURAL DE 03 NÚCLEOS BÁSICOS Y MÁS,SAN FRANCISCO CHIMALPA,"BANDHI 8 0 BARRIO BANDHI, PUEBLO DE SAN FRANCISCO CHIMALPA CERRADA DE LA MORA Y CAMINO REAL",53650,-99.34194444,19.44194444,2500
MCSSA004226,2,1,1,1,1,SSA,15,MÉXICO,12,NAUCALPAN,57,NAUCALPAN DE JUÁREZ,264,RINCÓN VERDE,UNIDAD DE CONSULTA EXTERNA,URBANO DE 07 NÚCLEOS BÁSICOS,RINCÓN VERDE,AVENIDA JACARANDA ESQUINA NOGAL SIN NÚMERO 0 RINCON VERDE AVENIDA SAN MATEO Y CALLE CHOPO,53219,-99.29027778,19.49638889,2300
MCSSA004284,2,1,1,1,1,SSA,15,MÉXICO,18,NEZAHUALCÓYOTL,58,NEZAHUALCÓYOTL,1,CIUDAD NEZAHUALCÓYOTL,UNIDAD DE CONSULTA EXTERNA,URBANO DE 08 NÚCLEOS BÁSICOS,CIUDAD LAGO,AVENIDA AEROPUERTO 3  CIUDAD LAGO ,57180,-98.98888889,19.4,2440
MCSSA004296,0,1,1,1,1,SSA,15,MÉXICO,18,NEZAHUALCÓYOTL,58,NEZAHUALCÓYOTL,1,CIUDAD NEZAHUALCÓYOTL,UNIDAD DE CONSULTA EXTERNA,URBANO DE 08 NÚCLEOS BÁSICOS,EL SOL,CALLE 35 ESQUINA TERCER AVENIDA   EL SOL ,57200,-98.98888889,19.4,2440
MCSSA004313,3,1,1,1,1,SSA,15,MÉXICO,18,NEZAHUALCÓYOTL,58,NEZAHUALCÓYOTL,1,CIUDAD NEZAHUALCÓYOTL,UNIDAD DE CONSULTA EXTERNA,URBANO DE 09 NÚCLEOS BÁSICOS,BENITO JUÁREZ,CIRCUITO REY NEZAHUALCOYOTL SIN NÚMERO   ,57000,-98.98888889,19.4,2440
MCSSA004325,0,1,1,1,1,SSA,15,MÉXICO,18,NEZAHUALCÓYOTL,58,NEZAHUALCÓYOTL,1,CIUDAD NEZAHUALCÓYOTL,UNIDAD DE CONSULTA EXTERNA,URBANO DE 09 NÚCLEOS BÁSICOS,BENITO JUÁREZ III AURORA,MÉXICO LINDO ENTRE AVENIDA DR.GUSTAVO BAZ Y MAÑANITAS SIN NÚMERO   ,57000,-98.98888889,19.4,2440
MCSSA004342,1,1,1,1,1,SSA,15,MÉXICO,18,NEZAHUALCÓYOTL,58,NEZAHUALCÓYOTL,1,CIUDAD NEZAHUALCÓYOTL,UNIDAD DE CONSULTA EXTERNA,URBANO DE 10 NÚCLEOS BÁSICOS,COL.MARAVILLAS,17 ESQUINA AMECAMECA SIN NÚMERO  MARAVILLAS ,57710,-98.98888889,19.4,2440
MCSSA004366,0,1,1,1,1,SSA,15,MÉXICO,18,NEZAHUALCÓYOTL,58,NEZAHUALCÓYOTL,1,CIUDAD NEZAHUALCÓYOTL,UNIDAD DE CONSULTA EXTERNA,URBANO DE 12 NÚCLEOS BÁSICOS Y MÁS,ESPERANZA,14 ENTRE CAMA DE PIEDRA Y ESCONDIDA SIN NÚMERO  LA ESPERANZA ,57800,-98.98888889,19.4,2440
MCSSA004383,0,1,1,1,1,SSA,15,MÉXICO,18,NEZAHUALCÓYOTL,58,NEZAHUALCÓYOTL,1,CIUDAD NEZAHUALCÓYOTL,UNIDAD DE CONSULTA EXTERNA,URBANO DE 12 NÚCLEOS BÁSICOS Y MÁS,COL.MANANTIALES,PRESIDENTE MIGUEL ALEMÁN ESQUIN 24 DE FEBRERO   MANANTIALES ,57930,-98.98888889,19.4,2440
MCSSA004395,1,1,1,1,1,SSA,15,MÉXICO,18,NEZAHUALCÓYOTL,58,NEZAHUALCÓYOTL,1,CIUDAD NEZAHUALCÓYOTL,UNIDAD DE CONSULTA EXTERNA,URBANO DE 12 NÚCLEOS BÁSICOS Y MÁS,METROPOLITANA,AVENIDA ANGEL DE LA INDEPENDENCIA ESQUINA PARQUES SIN NÚMERO  METROPOLITANA 2A. SECCIÓN ,57730,-98.98888889,19.4,2440
MCSSA004400,0,1,1,1,1,SSA,15,MÉXICO,18,NEZAHUALCÓYOTL,58,NEZAHUALCÓYOTL,1,CIUDAD NEZAHUALCÓYOTL,UNIDAD DE CONSULTA EXTERNA,URBANO DE 12 NÚCLEOS BÁSICOS Y MÁS,LOS PIRULES,AVENIDA CUATRO ESQUINA PLATEROS SIN NÚMERO  PIRULES ,57520,-98.98888889,19.4,2440
MCSSA004441,0,1,1,1,1,SSA,15,MÉXICO,10,ATIZAPÁN DE ZARAGOZA,60,NICOLÁS ROMERO,1,VILLA NICOLÁS ROMERO,UNIDAD DE CONSULTA EXTERNA,URBANO DE 05 NÚCLEOS BÁSICOS,EL GLOBO,LUCRECIA TORIZ SIN NÚMERO  FRACCIONAMIENTO EL GLOBO ,54415,-99.31416667,19.625,2400
MCSSA004453,3,1,1,0.998768151,0.998768151,SSA,15,MÉXICO,10,ATIZAPÁN DE ZARAGOZA,60,NICOLÁS ROMERO,1,VILLA NICOLÁS ROMERO,UNIDAD DE CONSULTA EXTERNA,URBANO DE 05 NÚCLEOS BÁSICOS,COL. LIBERTAD,LERDO DE TEJADA ENTRE NICOLÁS BRAVO Y CRISTOBAL COLÓN SIN NÚMERO 0 LIBERTAD NICOLÁS BRAVO Y BICENTENARIO,54400,-99.31416667,19.625,2400
MCSSA004465,3,1,1,1,1,SSA,15,MÉXICO,10,ATIZAPÁN DE ZARAGOZA,60,NICOLÁS ROMERO,1,VILLA NICOLÁS ROMERO,UNIDAD DE CONSULTA EXTERNA,URBANO DE 06 NÚCLEOS BÁSICOS,INDEPENDENCIA,AGUAS CALIENTES FRENTE AL FRACCIONAMIENTO SAN MARCOS} SIN NÚMERO   ,54400,-99.31416667,19.625,2400
MCSSA004470,0,1,1,1,1,SSA,15,MÉXICO,10,ATIZAPÁN DE ZARAGOZA,60,NICOLÁS ROMERO,1,VILLA NICOLÁS ROMERO,UNIDAD DE CONSULTA EXTERNA,URBANO DE 08 NÚCLEOS BÁSICOS,LA COLMENA,AVENIDA LA COLMENA SIN NÚMERO  FRACCIONAMIENTO ARCOIRIS ,54400,-99.31416667,19.625,2400
MCSSA004535,0,1,1,1,1,SSA,15,MÉXICO,10,ATIZAPÁN DE ZARAGOZA,60,NICOLÁS ROMERO,25,TRANSFIGURACIÓN,UNIDAD DE CONSULTA EXTERNA,RURAL DE 01 NÚCLEO BÁSICO,TRANSFIGURACIÓN,FLORES MAGON ATRÁS DE LA  IGLESIA SIN NÚMERO 0 TRANSFIGURACIÓN FLORES MAGÓN Y CALLE SIN NOMBRE,54400,-99.40916667,19.57944444,2793
MCSSA004552,3,1,1,1,1,SSA,15,MÉXICO,13,TEOTIHUACÁN,61,NOPALTEPEC,4,SAN FELIPE TEOTITLÁN,UNIDAD DE CONSULTA EXTERNA,RURAL DE 01 NÚCLEO BÁSICO,SAN FELIPE TEOTITLÁN,ESQUINA PRIMARIA SIN NÚMERO 0 SAN FELIPE TEOTITLÁN LOS REYES ESTUDIANTES Y HUILOTONGO,55970,-98.70138889,19.80277778,2450
MCSSA004610,0,1,1,1,1,SSA,15,MÉXICO,6,XONACATLÁN,62,OCOYOACAC,23,SAN PEDRO CHOLULA,UNIDAD DE CONSULTA EXTERNA,RURAL DE 02 NÚCLEOS BÁSICOS,SAN PEDRO CHOLULA,AVENIDA OCOYOACAC SIN NÚMERO   ,52746,-99.48611111,19.26388889,2570
MCSSA004622,0,0,1,0.728060544,1,SSA,15,MÉXICO,8,TENANCINGO,63,OCUILAN,1,OCUILAN DE ARTEAGA,UNIDAD DE CONSULTA EXTERNA,RURAL DE 02 NÚCLEOS BÁSICOS,OCUILAN DE ARTEAGA,AVENIDA DE LAS FLORES 16  CABECERA MUNICIPAL OCUILAN DE ARTEAGA ,52480,-99.41638889,18.97944444,2340
MCSSA004646,0,1,1,1,1,SSA,15,MÉXICO,8,TENANCINGO,63,OCUILAN,10,CHALMITA,UNIDAD DE CONSULTA EXTERNA,RURAL DE 01 NÚCLEO BÁSICO,CHALMITA (SAN AMBROCIO),PLAZA CIVICA SIN NÚMERO   ,52480,-99.42444444,18.935,1800
MCSSA004716,0,0,1,0,1,SSA,15,MÉXICO,1,ATLACOMULCO,64,EL ORO,21,PUEBLO NUEVO DE LOS ÁNGELES,UNIDAD DE CONSULTA EXTERNA,RURAL DE 01 NÚCLEO BÁSICO,PUEBLO NUEVO DE LOS ÁNGELES,JUNTO A LA IGLESIA A UN COSTADO DE LA ESCUELA PRIMARIA    ,50600,-100.0094444,19.77583333,2920
MCSSA004815,1,1,1,1,1,SSA,15,MÉXICO,13,TEOTIHUACÁN,65,OTUMBA,3,BELÉM,UNIDAD DE CONSULTA EXTERNA,RURAL DE 02 NÚCLEOS BÁSICOS,BELÉM,PLAZA PRINCIPAL FRENTE A LA ESCUELA PRIMARIA    ,55920,-98.79722222,19.63694444,2360
MCSSA004820,1,1,1,1,1,SSA,15,MÉXICO,13,TEOTIHUACÁN,65,OTUMBA,19,SANTIAGO TOLMAN,UNIDAD DE CONSULTA EXTERNA,RURAL DE 01 NÚCLEO BÁSICO,SANTIAGO TOLMAN,JAGUEY TECUINCO ENTRE AVENIDA MÉXICO Y 20 DE NOVIEMBRE SIN NÚMERO   ,55850,-98.78861111,19.72777778,2360
MCSSA004856,0,1,1,1,1,SSA,15,MÉXICO,6,XONACATLÁN,67,OTZOLOTEPEC,1,VILLA CUAUHTÉMOC,UNIDAD DE CONSULTA EXTERNA,RURAL DE 03 NÚCLEOS BÁSICOS Y MÁS,VILLA CUAUHTÉMOC,LOS RAMOS JUNTO AL DIF SIN NÚMERO   ,52080,-99.55777778,19.43194444,2580
MCSSA004885,2,1,1,1,1,SSA,15,MÉXICO,6,XONACATLÁN,67,OTZOLOTEPEC,8,SANTA ANA MAYORAZGO,UNIDAD DE CONSULTA EXTERNA,RURAL DE 01 NÚCLEO BÁSICO,MAYORAZGO (SANTA ANA),JUNTO A LA ESCUELA PRIMARIA SIN NÚMERO 0 SANTA ANA MAYORAZGO CALLE SIN NOMBRE ZONA RURAL,52080,-99.51333333,19.42944444,2600
MCSSA004955,0,1,1,1,1,SSA,15,MÉXICO,18,NEZAHUALCÓYOTL,70,LA PAZ,1,LOS REYES ACAQUILPAN,UNIDAD DE CONSULTA EXTERNA,URBANO DE 06 NÚCLEOS BÁSICOS,EMILIANO ZAPATA,VENUSTIANO CARRANZA ESQUINA PLUTARCO ELÍAS CALLES SIN NÚMERO  AMPLIACIÓN EMILIANO ZAPATA ,56401,-98.98,19.36055556,2330
